DBA,BUILDING,STREET,BORO,ZIPCODE,OLD,Address,CUISINE DESCRIPTION,INSPECTION DATE,ACTION,VIOLATION CODE,VIOLATION DESCRIPTION,CRITICAL FLAG,SCORE,GRADE,GRADE DATE,RECORD DATE,Latitude,Longitude
CANTINA CAQUERIA & TEQUILIA BAR,2099,FREDERICK DOUGLASS BOULEVARD,Manhattan,10026,2099 FREDERICK DOUGLASS BOULEVARD Manhattan 10026,"2099 frederick douglass boulevard manhattan, ny 10026",Mexican,8/16/23,Violations were cited in the following area(s).,04L,Evidence of mice or live mice in establishment's food or non-food areas.,Critical,27,B,8/16/23,12/4/23,0,0
ZONA TRIBECA MEZCALERIA,353,GREENWICH STREET,Manhattan,10013,353 GREENWICH STREET Manhattan 10013,"353 greenwich street manhattan, ny 10013",Mexican,8/31/22,Violations were cited in the following area(s).,10B,Anti-siphonage or back-flow prevention device not provided where required; equipment or floor not properly drained; sewage disposal system in disrepair or not functioning properly. Condensation or liquid waste improperly disposed of.,Not Critical,0,A,8/31/22,12/4/23,40.7186919,-74.010408
CASA CARMEN,114,FRANKLIN STREET,Manhattan,10013,114 FRANKLIN STREET Manhattan 10013,"114 franklin street manhattan, ny 10013",Mexican,5/10/23,Violations were cited in the following area(s).,02G,Cold TCS food item held above 41 ¬∞F; smoked or processed fish held above 38 ¬∞F; intact raw eggs held above 45 ¬∞F; or reduced oxygen packaged (ROP) TCS foods held above required temperatures except during active necessary preparation.,Critical,13,A,5/10/23,12/4/23,40.7186263,-74.006082
LA CHULA,137,EAST 116 STREET,Manhattan,10029,137 east 116 STREET Manhattan 10029,"137 east 116 street manhattan,ny 10029",Mexican,4/7/22,Violations were cited in the following area(s).,02B,Hot food item not held at or above 140¬∫ F.,Critical,9,A,4/7/22,12/4/23,40.798756,-73.941929
TACO BELL,1266,1 AVENUE,Manhattan,10065,1266 1 avenue Manhattan 10065,"1266 1st avenue manhattan, ny 10065",Mexican,11/2/22,Violations were cited in the following area(s).,10F,"Non-food contact surface or equipment made of unacceptable material, not kept clean, or not properly sealed, raised, spaced or movable to allow accessibility for cleaning on all sides, above and underneath the unit.",Not Critical,9,A,11/2/22,12/4/23,40.7653702,-73.957759
OFRENDA,113,7 AVENUE SOUTH,Manhattan,10014,113 7 avenue SOUTH Manhattan 10014,"113 7th avenue south manhattan,ny 10014",Mexican,4/18/23,Violations were cited in the following area(s).,10F,"Non-food contact surface or equipment made of unacceptable material, not kept clean, or not properly sealed, raised, spaced or movable to allow accessibility for cleaning on all sides, above and underneath the unit.",Not Critical,11,A,4/18/23,12/4/23,40.7338791,-74.002634
EL PASO TAQUERIA,64,EAST 97 STREET,Manhattan,10029,64 east 97 STREET Manhattan 10029,64 east 97th street manhattan 10029,Mexican,11/21/22,Violations were cited in the following area(s).,06F,"Wiping cloths not stored clean and dry, or in a sanitizing solution, between uses.",Critical,22,B,11/21/22,12/4/23,40.7874718,-73.952682
SINIGUAL,640,3 AVENUE,Manhattan,10017,640 3 avenue Manhattan 10017,"640 3rd avenue manhattan, ny 10017",Mexican,1/18/23,Violations were cited in the following area(s).,10B,Anti-siphonage or back-flow prevention device not provided where required; equipment or floor not properly drained; sewage disposal system in disrepair or not functioning properly. Condensation or liquid waste improperly disposed of.,Not Critical,13,A,1/18/23,12/4/23,40.7501967,-73.974869
BISTRO CASA AZUL,343,PLEASANT AVENUE,Manhattan,10035,343 PLEASANT avenue Manhattan 10035,"343 pleasant avenue manhattan, ny 10035",Mexican,1/25/23,Violations were cited in the following area(s).,02B,Hot TCS food item not held at or above 140 ¬∞F.,Critical,12,A,1/25/23,12/4/23,40.7964944,-73.932111
CHIPOTLE MEXICAN GRILL #3641uy;,350,5 AVENUE,Manhattan,10118,350 5 avenue Manhattan 10118,"350 5th avenue manhattan, ny 10118",Mexican,2/3/22,Violations were cited in the following area(s).,10F,"Non-food contact surface improperly constructed. Unacceptable material used. Non-food contact surface or equipment improperly maintained and/or not properly sealed, raised, spaced or movable to allow accessibility for cleaning on all sides, above and underneath the unit.",Not Critical,6,A,2/3/22,12/4/23,40.7482689,-73.98469
TOLOACHE,166,EAST 82 STREET,Manhattan,10028,166 east 82 STREET Manhattan 10028,"166 east 82 street manhattan, ny 10028",Mexican,3/10/23,Violations were cited in the following area(s).,06E,"Sanitized equipment or utensil, including in-use food dispensing utensil, improperly used or stored.",Critical,12,A,3/10/23,12/4/23,40.7765849,-73.956734
WHOLESOME TAQUERIA,503,MAIN STREET,Manhattan,10044,503 MAIN STREET Manhattan 10044,"503 main street manhattan, ny 10044",Mexican,11/15/22,Violations were cited in the following area(s).,06C,"Food, supplies, and equipment not protected from potential source of contamination during storage, preparation, transportation, display or service.",Critical,5,A,11/15/22,12/4/23,40.7608963,-73.950867
DOS TOROS,137,4 AVENUE,Manhattan,10003,137 4 avenue Manhattan 10003,"137 4th avenue manhattan, ny 10003",Mexican,7/13/23,Violations were cited in the following area(s).,10B,Anti-siphonage or back-flow prevention device not provided where required; equipment or floor not properly drained; sewage disposal system in disrepair or not functioning properly. Condensation or liquid waste improperly disposed of.,Not Critical,7,A,7/13/23,12/4/23,40.7336564,-73.989864
DOS TOROS,119,WEST 40 STREET,Manhattan,10018,119 WEST 40 STREET Manhattan 10018,"119 west 40th street manhattan, ny 10018",Mexican,4/24/23,Violations were cited in the following area(s).,10G,"Dishwashing and ware washing: Cleaning and sanitizing of tableware, including dishes, utensils, and equipment deficient.",Not Critical,7,A,4/24/23,12/4/23,40.7539699,-73.986028
CASA CARMEN,5,WEST 21 STREET,Manhattan,10010,5 WEST 21 STREET Manhattan 10010,"5 west 21st street manhattan, ny 10010",Mexican,8/10/23,Violations were cited in the following area(s).,04H,"Raw, cooked or prepared food is adulterated, contaminated, cross-contaminated, or not discarded in accordance with HACCP plan.",Critical,9,A,8/10/23,12/4/23,40.7405046,-73.991087
MAD DOG & BEANS,83,PEARL STREET,Manhattan,10004,83 PEARL STREET Manhattan 10004,"83 pearl street manhattan, ny 10004",Mexican,1/17/23,Violations were cited in the following area(s).,08A,"Establishment is not free of harborage or conditions conducive to rodents, insects or other pests.",Not Critical,9,A,1/17/23,12/4/23,40.7040485,-74.010153
TACO BELL,1266,1 AVENUE,Manhattan,10065,1266 1 avenue Manhattan 10065,"1266 1 avenue manhattan, ny 10065",Mexican,11/2/22,Violations were cited in the following area(s).,06D,"Food contact surface not properly washed, rinsed and sanitized after each use and following any activity when contamination may have occurred.",Critical,9,A,11/2/22,12/4/23,40.7653702,-73.957759
GREAT BURRITO RESTAURANT,100,WEST 23 STREET,Manhattan,10011,100 WEST 23 STREET Manhattan 10011,"100 west 23rd treet manhattan , ny 10011",Mexican,10/13/22,Violations were cited in the following area(s).,08A,"Establishment is not free of harborage or conditions conducive to rodents, insects or other pests.",Not Critical,10,A,10/13/22,12/4/23,40.7430739,-73.993237
FACTORY TAMAL,63,EAST 4 STREET,Manhattan,10003,63 east 4 STREET Manhattan 10003,"63 east 4th street manhattan, ny 10003",Mexican,4/3/23,Violations were cited in the following area(s).,02G,Cold TCS food item held above 41 ¬∞F; smoked or processed fish held above 38 ¬∞F; intact raw eggs held above 45 ¬∞F; or reduced oxygen packaged (ROP) TCS foods held above required temperatures except during active necessary preparation.,Critical,9,A,4/3/23,12/4/23,40.7267177,-73.990663
TACOS GRAND CENTRAL,711,2 AVENUE,Manhattan,10016,711 2 avenue Manhattan 10016,"711 2nd avenue manhattan, ny 10016",Mexican,2/24/22,Violations were cited in the following area(s).,08A,Facility not vermin proof. Harborage or conditions conducive to attracting vermin to the premises and/or allowing vermin to exist.,Not Critical,11,A,2/24/22,12/4/23,40.7474875,-73.973921
CASCALOTE LATIN BISTRO,2126,2 AVENUE,Manhattan,10029,2126 2 avenue Manhattan 10029,"2126 2nd avenue manhattan, ny 10029",Mexican,1/11/23,Violations were cited in the following area(s).,09A,"Swollen, leaking, rusted or otherwise damaged canned food to be returned to distributor not segregated from intact product and clearly labeled DO NOT USE",Not Critical,2,A,1/11/23,12/4/23,40.7927335,-73.94088
RUBY'S VINTAGE HARLEM,2340,7 AVENUE,Manhattan,10030,2340 7 avenue Manhattan 10030,"2340 7th avenue manhattan, ny 10030",Mexican,6/2/22,Violations were cited in the following area(s).,10E,Accurate thermometer not provided in refrigerated or hot holding equipment.,Not Critical,12,A,6/2/22,12/4/23,40.8166439,-73.94273
CANTINA CAQUERIA & TEQUILIA BAR,2099,FREDERICK DOUGLASS BOULEVARD,Manhattan,10026,2099 FREDERICK DOUGLASS BOULEVARD Manhattan 10026,"2099 frederick douglass boulevard manhattan, ny 10026",Mexican,8/16/23,Violations were cited in the following area(s).,06C,"Food, supplies, or equipment not protected from potential source of contamination during storage, preparation, transportation, display, service or from customer‚Äôs refillable, reusable container. Condiments not in single-service containers or dispensed directly by the vendor.",Critical,27,B,8/16/23,12/4/23,0,0
EL AGUILA,1634,LEXINGTON AVENUE,Manhattan,10029,1634 LEXINGTON avenue Manhattan 10029,"1634 lexington avenue manhattan, ny 10029",Mexican,5/3/23,Violations were cited in the following area(s).,02B,Hot TCS food item not held at or above 140 ¬∞F.,Critical,26,B,5/3/23,12/4/23,40.7904065,-73.947628
EL COCO,202,8 AVENUE,Manhattan,10011,202 8 avenue Manhattan 10011,"202 8th avenue manhattan, ny 10011",Mexican,5/25/22,Violations were cited in the following area(s).,06C,"Food not protected from potential source of contamination during storage, preparation, transportation, display or service.",Critical,9,A,5/25/22,12/4/23,40.7436038,-73.999697
SUMMER SALT,275,MADISON AVE,Manhattan,10016,275 MADISON AVE Manhattan 10016,"275 madison ave manhattan, ny 10016",Mexican,3/29/23,Violations were cited in the following area(s).,02G,Cold TCS food item held above 41 ¬∞F; smoked or processed fish held above 38 ¬∞F; intact raw eggs held above 45 ¬∞F; or reduced oxygen packaged (ROP) TCS foods held above required temperatures except during active necessary preparation.,Critical,13,A,3/29/23,12/4/23,40.7512545,-73.979868
DOS CAMINOS,373,PARK AVENUE SOUTH,Manhattan,10016,373 PARK avenue SOUTH Manhattan 10016,"373 park avenue south manhattan, ny 10016",Mexican,2/8/22,Violations were cited in the following area(s).,06D,"Food contact surface not properly washed, rinsed and sanitized after each use and following any activity when contamination may have occurred.",Critical,13,A,2/8/22,12/4/23,40.7423677,-73.984757
TACO BELL,1501,BROADWAY,Manhattan,10036,1501 BROADWAY Manhattan 10036,"1501 broadway manhattan, ny 10036",Mexican,11/22/23,Violations were cited in the following area(s).,10F,"Non-food contact surface or equipment made of unacceptable material, not kept clean, or not properly sealed, raised, spaced or movable to allow accessibility for cleaning on all sides, above and underneath the unit.",Not Critical,11,A,11/22/23,12/4/23,40.7570962,-73.986193
TORO LOCO,15,STONE STREET,Manhattan,10004,15 STONE STREET Manhattan 10004,"15 stone street manhattan, ny 10004",Mexican,8/9/22,Violations were cited in the following area(s).,08A,"Establishment is not free of harborage or conditions conducive to rodents, insects or other pests.",Not Critical,13,A,8/9/22,12/4/23,40.7040264,-74.012068
LOLITAS KITCHEN & BURGER HOUSE,1364,LEXINGTON AVENUE,Manhattan,10128,1364 LEXINGTON avenue Manhattan 10128,"1364 lexington avenue manhattan, ny 10128",Mexican,2/27/23,Violations were cited in the following area(s).,06C,"Food, supplies, and equipment not protected from potential source of contamination during storage, preparation, transportation, display or service.",Critical,8,A,2/27/23,12/4/23,40.7822022,-73.953621
DOS TOROS,10,EAST 48 STREET,Manhattan,10017,10 east 48 STREET Manhattan 10017,"10 east 48th street manhattan, ny 10017",Mexican,9/20/23,Violations were cited in the following area(s).,10F,"Non-food contact surface or equipment made of unacceptable material, not kept clean, or not properly sealed, raised, spaced or movable to allow accessibility for cleaning on all sides, above and underneath the unit.",Not Critical,9,A,9/20/23,12/4/23,40.7570125,-73.977502
EVA'S x CINCO DE MAYO,43,WEST 55 STREET,Manhattan,10019,43 WEST 55 STREET Manhattan 10019,"43 west 55th street manhattan, ny 10019",Mexican,11/7/22,Violations were cited in the following area(s).,10B,Anti-siphonage or back-flow prevention device not provided where required; equipment or floor not properly drained; sewage disposal system in disrepair or not functioning properly. Condensation or liquid waste improperly disposed of.,Not Critical,13,A,11/7/22,12/4/23,40.7622795,-73.976363
TAQUERIA Y FONDA LA MEXICANA,968,AMSTERDAM AVENUE,Manhattan,10025,968 AMSTERDAM avenue Manhattan 10025,"968 amsterdam avenue manhattan, ny 10025",Mexican,2/8/23,Violations were cited in the following area(s).,10F,"Non-food contact surface or equipment made of unacceptable material, not kept clean, or not properly sealed, raised, spaced or movable to allow accessibility for cleaning on all sides, above and underneath the unit.",Not Critical,27,B,2/8/23,12/4/23,40.8014552,-73.964971
TORTARIA,94,UNIVERSITY PLACE,Manhattan,10003,94 UNIVERSITY PLACE Manhattan 10003,"94 university place manhattan, ny 10003",Mexican,11/2/23,Violations were cited in the following area(s).,08A,"Establishment is not free of harborage or conditions conducive to rodents, insects or other pests.",Not Critical,12,A,11/2/23,12/4/23,40.7337417,-73.992957
ROSA MEXICANO,61,COLUMBUS AVENUE,Manhattan,10023,61 COLUMBUS avenue Manhattan 10023,"61 columbus avenue manhattan, ny 10023",Mexican,2/3/22,Violations were cited in the following area(s).,04L,Evidence of mice or live mice present in facility's food and/or non-food areas.,Critical,12,A,2/3/22,12/4/23,40.7711957,-73.983328
SINIGUAL,640,3 AVENUE,Manhattan,10017,640 3 avenue Manhattan 10017,"640 3rd avenue manhattan, ny 10017",Mexican,1/18/23,Violations were cited in the following area(s).,10F,"Non-food contact surface or equipment made of unacceptable material, not kept clean, or not properly sealed, raised, spaced or movable to allow accessibility for cleaning on all sides, above and underneath the unit.",Not Critical,13,A,1/18/23,12/4/23,40.7501967,-73.974869
RANCHO TEQUILERIA,741,9 AVENUE,Manhattan,10019,741 9 avenue Manhattan 10019,"741 9th avenue manhattan, ny 10019",Mexican,6/16/22,Violations were cited in the following area(s).,02G,Cold food item held above 41¬∫ F (smoked fish and reduced oxygen packaged foods above 38 ¬∫F) except during necessary preparation.,Critical,13,A,6/16/22,12/4/23,40.7635769,-73.988889
QUESADILLAS DONA MATY,158,EAST 116 STREET,Manhattan,10029,158 east 116 STREET Manhattan 10029,"158 east 116th street manhattan, ny 10029",Mexican,10/5/23,Violations were cited in the following area(s).,02B,Hot TCS food item not held at or above 140 ¬∞F.,Critical,23,B,10/5/23,12/4/23,40.7983713,-73.941066
TAQUERIA SANTA FE,2248,1 AVENUE,Manhattan,10029,2248 1 avenue Manhattan 10029,"2248 1st avenue manhattan, ny 10029",Mexican,9/20/23,Violations were cited in the following area(s).,02G,Cold TCS food item held above 41 ¬∞F; smoked or processed fish held above 38 ¬∞F; intact raw eggs held above 45 ¬∞F; or reduced oxygen packaged (ROP) TCS foods held above required temperatures except during active necessary preparation.,Critical,12,A,9/20/23,12/4/23,40.7956483,-73.935651
BAR TULIX,25,WEST HOUSTON STREET,Manhattan,10012,25 WEST HOUSTON STREET Manhattan 10012,"25 west houston street manhattan, ny 10012",Mexican,1/24/23,Violations were cited in the following area(s).,02G,Cold TCS food item held above 41 ¬∞F; smoked or processed fish held above 38 ¬∞F; intact raw eggs held above 45 ¬∞F; or reduced oxygen packaged (ROP) TCS foods held above required temperatures except during active necessary preparation.,Critical,19,B,1/24/23,12/4/23,40.7259248,-73.997904
PANCHO'S ANTOJITOS MEXICANOS,964,AMSTERDAM AVENUE,Manhattan,10025,964 AMSTERDAM avenue Manhattan 10025,"964 amsterdam avenue manhattan, ny 10025",Mexican,4/26/22,Violations were cited in the following area(s).,10F,"Non-food contact surface improperly constructed. Unacceptable material used. Non-food contact surface or equipment improperly maintained and/or not properly sealed, raised, spaced or movable to allow accessibility for cleaning on all sides, above and underneath the unit.",Not Critical,5,A,4/26/22,12/4/23,40.801329,-73.965065
OXIDO,1450,BROADWAY,Manhattan,10018,1450 BROADWAY Manhattan 10018,"1450 broadway manhattan, ny 10018",Mexican,3/3/23,Violations were cited in the following area(s).,02B,Hot TCS food item not held at or above 140 ¬∞F.,Critical,10,A,3/3/23,12/4/23,40.7549197,-73.98666
LAS PALMAS RESTAURANT,3891,BROADWAY,Manhattan,10032,3891 BROADWAY Manhattan 10032,"3891 broadway manhattan, ny 10032",Mexican,10/18/23,Violations were cited in the following area(s).,10B,Anti-siphonage or back-flow prevention device not provided where required; equipment or floor not properly drained; sewage disposal system in disrepair or not functioning properly. Condensation or liquid waste improperly disposed of.,Not Critical,10,A,10/18/23,12/4/23,40.8375312,-73.942347
DOS TOROS,101,MAIDEN LANE,Manhattan,10038,101 MAIDEN LANE Manhattan 10038,"101 maiden lane manhattan, ny 10038",Mexican,3/1/23,Violations were cited in the following area(s).,02G,Cold TCS food item held above 41 ¬∞F; smoked or processed fish held above 38 ¬∞F; intact raw eggs held above 45 ¬∞F; or reduced oxygen packaged (ROP) TCS foods held above required temperatures except during active necessary preparation.,Critical,10,A,3/1/23,12/4/23,40.7069555,-74.007091
PICANTE MEXICAN BAR AND GRILL RESTAURANT,3424,BROADWAY,Manhattan,10031,3424 BROADWAY Manhattan 10031,"3424 broadway manhattan, ny 10031",Mexican,3/8/22,Violations were cited in the following area(s).,10F,"Non-food contact surface improperly constructed. Unacceptable material used. Non-food contact surface or equipment improperly maintained and/or not properly sealed, raised, spaced or movable to allow accessibility for cleaning on all sides, above and underneath the unit.",Not Critical,7,A,3/8/22,12/4/23,40.8228243,-73.953069
ROSA MEXICANO,61,COLUMBUS AVENUE,Manhattan,10023,61 COLUMBUS avenue Manhattan 10023,"61 columbus avenue manhattan, ny 10023",Mexican,9/19/23,Violations were cited in the following area(s).,04N,"Filth flies or food/refuse/sewage associated with (FRSA) flies or other nuisance pests in establishment‚Äôs food and/or non-food areas. FRSA flies include house flies, blow flies, bottle flies, flesh flies, drain flies, Phorid flies and fruit flies.",Critical,18,B,9/19/23,12/4/23,40.7711957,-73.983328
AGAVE,140,7 AVENUE SOUTH,Manhattan,10014,140 7 avenue SOUTH Manhattan 10014,"140 7th avenue south manhattan, ny 10014",Mexican,3/30/23,Violations were cited in the following area(s).,06C,"Food, supplies, or equipment not protected from potential source of contamination during storage, preparation, transportation, display, service or from customer‚Äôs refillable, reusable container. Condiments not in single-service containers or dispensed directly by the vendor.",Critical,22,B,3/30/23,12/4/23,40.7347272,-74.002176
DOS TOROS,137,4 AVENUE,Manhattan,10003,137 4 avenue Manhattan 10003,"137 4th avenue manhattan, ny 10003",Mexican,7/13/23,Violations were cited in the following area(s).,10F,"Non-food contact surface or equipment made of unacceptable material, not kept clean, or not properly sealed, raised, spaced or movable to allow accessibility for cleaning on all sides, above and underneath the unit.",Not Critical,7,A,7/13/23,12/4/23,40.7336564,-73.989864
SKINNY CANTINA,703,W 133RD ST,Manhattan,10027,703 W 133RD ST Manhattan 10027,"703 west 133rd street manhattan, ny 10027",Mexican,3/23/22,Violations were cited in the following area(s).,10F,"Non-food contact surface improperly constructed. Unacceptable material used. Non-food contact surface or equipment improperly maintained and/or not properly sealed, raised, spaced or movable to allow accessibility for cleaning on all sides, above and underneath the unit.",Not Critical,3,A,3/23/22,12/4/23,40.8200351,-73.958938
BARRIO CHINO,253,BROOME STREET,Manhattan,10002,253 BROOME STREET Manhattan 10002,"253 broome street manhattan, ny 10002",Mexican,9/8/22,Violations were cited in the following area(s).,08A,"Establishment is not free of harborage or conditions conducive to rodents, insects or other pests.",Not Critical,0,A,9/8/22,12/4/23,40.7180304,-73.989971
IGUANA RESTAURANT,240,WEST 54 STREET,Manhattan,10019,240 WEST 54 STREET Manhattan 10019,"240 west 54 street manhattan, ny 10019",Mexican,2/8/22,Violations were cited in the following area(s).,10F,"Non-food contact surface improperly constructed. Unacceptable material used. Non-food contact surface or equipment improperly maintained and/or not properly sealed, raised, spaced or movable to allow accessibility for cleaning on all sides, above and underneath the unit.",Not Critical,13,A,2/8/22,12/4/23,40.7642239,-73.982965
TOLOACHE MEXICAN BISTRO,251,WEST 50 STREET,Manhattan,10019,251 WEST 50 STREET Manhattan 10019,"251 west 50 street manhattan, ny 10019",Mexican,3/29/22,Violations were cited in the following area(s).,02B,Hot food item not held at or above 140¬∫ F.,Critical,11,A,3/29/22,12/4/23,40.7618445,-73.985041
EVA'S x CINCO DE MAYO,43,WEST 55 STREET,Manhattan,10019,43 WEST 55 STREET Manhattan 10019,"43 west 55 street manhattan, ny 10019",Mexican,11/7/22,Violations were cited in the following area(s).,04H,"Raw, cooked or prepared food is adulterated, contaminated, cross-contaminated, or not discarded in accordance with HACCP plan.",Critical,13,A,11/7/22,12/4/23,40.7622795,-73.976363
WIMPY'S RESTAURANT,2334,2 AVENUE,Manhattan,10035,2334 2 avenue Manhattan 10035,"2334 2nd avenue manhattan , ny 10035",Mexican,2/3/23,Violations were cited in the following area(s).,10F,"Non-food contact surface or equipment made of unacceptable material, not kept clean, or not properly sealed, raised, spaced or movable to allow accessibility for cleaning on all sides, above and underneath the unit.",Not Critical,13,A,2/3/23,12/4/23,40.7992662,-73.936103
MEXICUE,225,5 AVENUE,Manhattan,10010,225 5 avenue Manhattan 10010,"225 5th avenue manhattan, ny 10010",Mexican,12/27/22,Violations were cited in the following area(s).,02G,Cold TCS food item held above 41 ¬∞F; smoked or processed fish held above 38 ¬∞F; intact raw eggs held above 45 ¬∞F; or reduced oxygen packaged (ROP) TCS foods held above required temperatures except during active necessary preparation.,Critical,27,B,12/27/22,12/4/23,40.74382,-73.987907
THE RED GRILL MEXICAN RESTAURANT,1701,2 AVENUE,Manhattan,10128,1701 2 avenue Manhattan 10128,"1701 2nd avenue manhattan, ny 10128",Mexican,2/28/23,Violations were cited in the following area(s).,06C,"Food, supplies, and equipment not protected from potential source of contamination during storage, preparation, transportation, display or service.",Critical,12,A,2/28/23,12/4/23,40.7792724,-73.950735
PAQ'S TAKE OUT,143,1 AVENUE,Manhattan,10003,143 1 avenue Manhattan 10003,"143 1st avenue manhattan, ny 10003",Mexican,4/13/22,Violations were cited in the following area(s).,04K,Evidence of rats or live rats present in facility's food and/or non-food areas.,Critical,23,B,4/13/22,12/4/23,40.7280208,-73.984984
AMERICAN RESTAURANT,1467,AMSTERDAM AVENUE,Manhattan,10027,1467 AMSTERDAM avenue Manhattan 10027,"1467 amsterdam avenue manhattan, ny 10027",Mexican,8/4/23,Violations were cited in the following area(s).,10A,"Toilet facility not maintained or provided with toilet paper, waste receptacle or self-closing door.",Not Critical,11,A,8/4/23,12/4/23,40.8171785,-73.953474
AZULE CANTINA,31,WEST 52 STREET,Manhattan,10019,31 WEST 52 STREET Manhattan 10019,"31 west 52 street manhattan, ny 10019",Mexican,7/26/22,Violations were cited in the following area(s).,02G,Cold TCS food item held above 41 ¬∞F; smoked or processed fish held above 38 ¬∞F; intact raw eggs held above 45 ¬∞F; or reduced oxygen packaged (ROP) TCS foods held above required temperatures except during active necessary preparation.,Critical,13,A,7/26/22,12/4/23,40.7604847,-73.977937
LA PILITA DELI GROCERY,3866,10 AVENUE,Manhattan,10034,3866 10 avenue Manhattan 10034,"3866 10th avenue manhattan, ny 10034",Mexican,4/28/22,Violations were cited in the following area(s).,06A,Personal cleanliness inadequate. Outer garment soiled with possible contaminant. Effective hair restraint not worn in an area where food is prepared.,Critical,12,A,4/28/22,12/4/23,40.864303,-73.919062
CANTINA CAQUERIA & TEQUILIA BAR,2099,FREDERICK DOUGLASS BOULEVARD,Manhattan,,2099 FREDERICK DOUGLASS BOULEVARD Manhattan,"2099 frederick douglass boulevard manhattan, ny 10026",Mexican,8/16/23,Violations were cited in the following area(s).,10F,"Non-food contact surface or equipment made of unacceptable material, not kept clean, or not properly sealed, raised, spaced or movable to allow accessibility for cleaning on all sides, above and underneath the unit.",Not Critical,27,B,8/16/23,12/4/23,0,0
LUPITA MEXICAN RESTAURANT,3829,BROADWAY,Manhattan,10032,3829 BROADWAY Manhattan 10032,"3829 broadway manhattan, ny 10032",Mexican,2/6/23,Violations were cited in the following area(s).,04M,Live roaches in facility's food or non-food area.,Critical,14,B,2/6/23,12/4/23,40.8355941,-73.943765
DOS TOROS,1,STATE STREET,Manhattan,10004,1 STATE STREET Manhattan 10004,"1st state street manhattan, ny 10004",Mexican,7/25/23,Violations were cited in the following area(s).,10E,"Accurate thermometer not provided or properly located in refrigerated, cold storage or hot holding equipment",Not Critical,13,A,7/25/23,12/4/23,40.7023877,-74.012948
MI CASITA RESTARANT,1484,AMSTERDAM AVENUE,Manhattan,10031,1484 AMSTERDAM avenue Manhattan 10031,"1484 amsterdam avenue manhattan, ny  10031",Mexican,2/7/23,Violations were cited in the following area(s).,08C,"Pesticide not properly labeled or used by unlicensed individual. Pesticide, other toxic chemical improperly used/stored. Unprotected, unlocked bait station used.",Not Critical,9,A,2/7/23,12/4/23,40.8178535,-73.953007
KAHLO,525,WEST 29 STREET,Manhattan,10001,525 WEST 29 STREET Manhattan 10001,"525 west 29 street manhattan, ny 10001",Mexican,8/30/22,Violations were cited in the following area(s).,05D,"No hand washing facility in or adjacent to toilet room or within 25 feet of a food preparation, food service or ware washing area. Hand washing facility not accessible, obstructed or used for non-hand washing purposes. No hot and cold running water or water at inadequate pressure. No soap or acceptable hand-drying device.",Critical,10,A,8/30/22,12/4/23,40.7519287,-74.00257
"LA ESQUINA ""THE CORNER""",106,KENMARE STREET,Manhattan,10012,106 KENMARE STREET Manhattan 10012,"106 kenmare street manhattan , ny 10012",Mexican,11/21/22,Violations were cited in the following area(s).,06C,"Food, supplies, and equipment not protected from potential source of contamination during storage, preparation, transportation, display or service.",Critical,16,B,11/21/22,12/4/23,40.7214536,-73.997457
HOT JALAPENO RESTAURANT,219,EAST 116 STREET,Manhattan,10029,219 east 116 STREET Manhattan 10029,"219 east 116th street manhattan, ny 10029",Mexican,6/15/22,Violations were cited in the following area(s).,10F,"Non-food contact surface improperly constructed. Unacceptable material used. Non-food contact surface or equipment improperly maintained and/or not properly sealed, raised, spaced or movable to allow accessibility for cleaning on all sides, above and underneath the unit.",Not Critical,3,A,6/15/22,12/4/23,40.7976842,-73.939391
ROSA MEXICANO,251,EAST 52 STREET,Manhattan,10022,251 east 52 STREET Manhattan 10022,"251 east 52nd street manhattan, ny 10022",Mexican,7/13/23,Violations were cited in the following area(s).,04N,"Filth flies or food/refuse/sewage associated with (FRSA) flies or other nuisance pests in establishment‚Äôs food and/or non-food areas. FRSA flies include house flies, blow flies, bottle flies, flesh flies, drain flies, Phorid flies and fruit flies.",Critical,13,A,7/13/23,12/4/23,40.7565905,-73.968691
SOL MEXICAN COCINA,220,5 AVENUE,Manhattan,10001,220 5 avenue Manhattan 10001,"220 5th avenue manhattan, ny 10001",Mexican,5/12/23,Violations were cited in the following area(s).,06D,"Food contact surface not properly washed, rinsed and sanitized after each use and following any activity when contamination may have occurred.",Critical,13,A,5/12/23,12/4/23,40.7436032,-73.988091
TACO ZONE,1750,1 AVENUE,Manhattan,10128,1750 1 avenue Manhattan 10128,1750 1st avenue manhattan 10128,Mexican,8/22/23,Violations were cited in the following area(s).,09E,Wash hands sign not posted near or above hand washing sink.,Not Critical,25,B,8/22/23,12/4/23,40.7798335,-73.947199
TACO BELL,18,EAST 14 STREET,Manhattan,10003,18 east 14 STREET Manhattan 10003,"18 east 14 street manhattan, ny 10003",Mexican,1/23/23,Violations were cited in the following area(s).,04A,Food Protection Certificate (FPC) not held by manager or supervisor of food operations.,Critical,10,A,1/23/23,12/4/23,40.7356108,-73.992711
CANTINA CAQUERIA & TEQUILIA BAR,2099,FREDERICK DOUGLASS BOULEVARD,Manhattan,,2099 FREDERICK DOUGLASS BOULEVARD Manhattan,"2099 frederick douglass boulevard manhattan, ny 10026",Mexican,8/16/23,Violations were cited in the following area(s).,08A,"Establishment is not free of harborage or conditions conducive to rodents, insects or other pests.",Not Critical,27,B,8/16/23,12/4/23,0,0
LOLITAS KITCHEN & BURGER HOUSE,1364,LEXINGTON AVENUE,Manhattan,10128,1364 LEXINGTON avenue Manhattan 10128,"1364 lexington avenue manhattan, ny 10128",Mexican,2/27/23,Violations were cited in the following area(s).,10F,"Non-food contact surface or equipment made of unacceptable material, not kept clean, or not properly sealed, raised, spaced or movable to allow accessibility for cleaning on all sides, above and underneath the unit.",Not Critical,8,A,2/27/23,12/4/23,40.7822022,-73.953621
QUESADILLAS DONA MATY,158,EAST 116 STREET,Manhattan,10029,158 east 116 STREET Manhattan 10029,"158 east 116th street manhattan, ny 10029",Mexican,10/5/23,Violations were cited in the following area(s).,10F,"Non-food contact surface or equipment made of unacceptable material, not kept clean, or not properly sealed, raised, spaced or movable to allow accessibility for cleaning on all sides, above and underneath the unit.",Not Critical,23,B,10/5/23,12/4/23,40.7983713,-73.941066
TAQUERIA SAN PEDRO,3662,BROADWAY,Manhattan,10031,3662 BROADWAY Manhattan 10031,"3662 broadway manhattan, ny 10031",Mexican,9/14/22,Violations were cited in the following area(s).,06D,"Food contact surface not properly washed, rinsed and sanitized after each use and following any activity when contamination may have occurred.",Critical,17,B,9/14/22,12/4/23,40.8304028,-73.947535
GABRIELA'S TAQUERIA,152,WEST 52 STREET,Manhattan,10019,152 WEST 52 STREET Manhattan 10019,"152 west 52nd street manhattan, ny 10019",Mexican,5/11/22,Violations were cited in the following area(s).,10E,Accurate thermometer not provided in refrigerated or hot holding equipment.,Not Critical,12,A,5/11/22,12/4/23,40.7619977,-73.981568
LA CONTENTA,102,NORFOLK STREET,Manhattan,10002,102 NORFOLK STREET Manhattan 10002,"102 norfolk street manhattan, ny 10002",Mexican,3/13/23,Violations were cited in the following area(s).,05D,"No hand washing facility in or adjacent to toilet room or within 25 feet of a food preparation, food service or ware washing area. Hand washing facility not accessible, obstructed or used for non-hand washing purposes. No hot and cold running water or water at inadequate pressure. No soap or acceptable hand-drying device.",Critical,13,A,3/13/23,12/4/23,40.7188124,-73.987125
DOS TOROS,1290,AVENUE OF THE AMERICAS,Manhattan,10119,1290 avenue OF THE AMERICAS Manhattan 10119,"1290 avenue of the americas manhattan, ny 10119",Mexican,3/25/22,Violations were cited in the following area(s).,10F,"Non-food contact surface improperly constructed. Unacceptable material used. Non-food contact surface or equipment improperly maintained and/or not properly sealed, raised, spaced or movable to allow accessibility for cleaning on all sides, above and underneath the unit.",Not Critical,11,A,3/25/22,12/4/23,40.7608501,-73.979717
CANTINA TAQUERIA & TEQUILA BAR,329,LENOX AVENUE,Manhattan,10027,329 LENOX avenue Manhattan 10027,"329 lenox avenue manhattan, ny 10027",Mexican,1/12/23,Violations were cited in the following area(s).,08A,"Establishment is not free of harborage or conditions conducive to rodents, insects or other pests.",Not Critical,21,B,1/12/23,12/4/23,40.8087565,-73.944778
LA ESQUINA,200,WEST 55 STREET,Manhattan,10019,200 WEST 55 STREET Manhattan 10019,"200 west 55 street manhattan, , ny 10019",Mexican,9/14/22,Violations were cited in the following area(s).,04L,Evidence of mice or live mice in establishment's food or non-food areas.,Critical,0,A,9/14/22,12/4/23,40.7642841,-73.98117
MEXICUE,225,5 AVENUE,Manhattan,10010,225 5 avenue Manhattan 10010,"225 5th avenue manhattan, ny 10010",Mexican,12/27/22,Violations were cited in the following area(s).,02B,Hot TCS food item not held at or above 140 ¬∞F.,Critical,27,B,12/27/22,12/4/23,40.74382,-73.987907
WIMPY'S RESTAURANT,2334,2 AVENUE,Manhattan,10035,2334 2 avenue Manhattan 10035,"2334 2nd avenue manhattan, ny 10035",Mexican,2/3/23,Violations were cited in the following area(s).,09B,Thawing procedure improper.,Not Critical,13,A,2/3/23,12/4/23,40.7992662,-73.936103
TAQUERIA SAN PEDRO,3662,BROADWAY,Manhattan,10031,3662 BROADWAY Manhattan 10031,"3662 broadway manhattan, ny 10031",Mexican,9/14/22,Violations were cited in the following area(s).,02B,Hot TCS food item not held at or above 140 ¬∞F.,Critical,17,B,9/14/22,12/4/23,40.8304028,-73.947535
SOL MAYA RESTAURANT,2061,2 AVENUE,Manhattan,10029,2061 2 avenue Manhattan 10029,"2061 2nd avenue manhattan, ny 10029",Mexican,3/16/22,Violations were cited in the following area(s).,10F,"Non-food contact surface improperly constructed. Unacceptable material used. Non-food contact surface or equipment improperly maintained and/or not properly sealed, raised, spaced or movable to allow accessibility for cleaning on all sides, above and underneath the unit.",Not Critical,8,A,3/16/22,12/4/23,40.790522,-73.942518
TORTARIA,94,UNIVERSITY PLACE,Manhattan,10003,94 UNIVERSITY PLACE Manhattan 10003,"94 university place manhattan, ny 10003",Mexican,4/18/22,Violations were cited in the following area(s).,10B,Plumbing not properly installed or maintained; anti-siphonage or backflow prevention device not provided where required; equipment or floor not properly drained; sewage disposal system in disrepair or not functioning properly.,Not Critical,12,A,4/18/22,12/4/23,40.7337417,-73.992957
787 COFFEE,66,PEARL STREET,Manhattan,10004,66 PEARL STREET Manhattan 10004,"66 pearl street manhattan, ny 10004",Mexican,3/7/23,Violations were cited in the following area(s).,06D,"Food contact surface not properly washed, rinsed and sanitized after each use and following any activity when contamination may have occurred.",Critical,10,A,3/7/23,12/4/23,40.7036038,-74.010932
EL TORO MEXICAN GRILL,69,NEW STREET,Manhattan,10004,69 NEW STREET Manhattan 10004,"69 new street manhattan, ny 10004",Mexican,3/24/22,Violations were cited in the following area(s).,08C,Pesticide use not in accordance with label or applicable laws. Prohibited chemical used/stored. Open bait station used.,Not Critical,9,A,3/24/22,12/4/23,40.7055003,-74.012396
ROSA MEXICANO,61,COLUMBUS AVENUE,Manhattan,10023,61 COLUMBUS avenue Manhattan 10023,"61 columbus avenue manhattan, ny 10023",Mexican,9/19/23,Violations were cited in the following area(s).,08A,"Establishment is not free of harborage or conditions conducive to rodents, insects or other pests.",Not Critical,18,B,9/19/23,12/4/23,40.7711957,-73.983328
PATRON MEXICAN GRILL,608,9 AVENUE,Manhattan,10036,608 9 avenue Manhattan 10036,"608 9th avenue manhattan, ny 10036",Mexican,10/7/22,Violations were cited in the following area(s).,04L,Evidence of mice or live mice in establishment's food or non-food areas.,Critical,11,A,10/7/22,12/4/23,40.7593338,-73.991954
EL PASO TAQUERIA,64,EAST 97 STREET,Manhattan,10029,64 east 97 STREET Manhattan 10029,"64 east 97th street manhattan, ny 10029",Mexican,11/21/22,Violations were cited in the following area(s).,10E,"Accurate thermometer not provided or properly located in refrigerated, cold storage or hot holding equipment",Not Critical,22,B,11/21/22,12/4/23,40.7874718,-73.952682
SABOR A MEXICO TAQUERIA,160,1 AVENUE,Manhattan,10009,160 1 avenue Manhattan 10009,"160 1st avenue manhattan, ny 10009",Mexican,1/19/22,Violations were cited in the following area(s).,02B,Hot food item not held at or above 140¬∫ F.,Critical,7,A,1/19/22,12/4/23,40.7285999,-73.984536
FUSION HK BAR-GRILL,688,10 AVENUE,Manhattan,10019,688 10 avenue Manhattan 10019,"688 10 avenue manhattan, ny 10019",Mexican,9/14/22,Violations were cited in the following area(s).,02G,Cold TCS food item held above 41 ¬∞F; smoked or processed fish held above 38 ¬∞F; intact raw eggs held above 45 ¬∞F; or reduced oxygen packaged (ROP) TCS foods held above required temperatures except during active necessary preparation.,Critical,9,A,9/14/22,12/4/23,40.763558,-73.992589
MEXICO LINDO RESTAURANT,459,2 AVENUE,Manhattan,10010,459 2 avenue Manhattan 10010,"459 2nd avenue manhattan, ny 10010",Mexican,10/26/23,Violations were cited in the following area(s).,06C,"Food, supplies, or equipment not protected from potential source of contamination during storage, preparation, transportation, display, service or from customer‚Äôs refillable, reusable container. Condiments not in single-service containers or dispensed directly by the vendor.",Critical,13,A,10/26/23,12/4/23,40.7396441,-73.979615
EVA'S x CINCO DE MAYO,43,WEST 55 STREET,Manhattan,10019,43 WEST 55 STREET Manhattan 10019,"43 west 55th street manhattan, ny 10019",Mexican,5/11/23,Violations were cited in the following area(s).,10F,"Non-food contact surface or equipment made of unacceptable material, not kept clean, or not properly sealed, raised, spaced or movable to allow accessibility for cleaning on all sides, above and underneath the unit.",Not Critical,10,A,5/11/23,12/4/23,40.7622795,-73.976363
TULCIMEXICO RESTAURANT,2798,8 AVENUE,Manhattan,10039,2798 8 avenue Manhattan 10039,"2798 8th avenue manhattan, ny  10039",Mexican,11/22/22,Violations were cited in the following area(s).,10F,"Non-food contact surface or equipment made of unacceptable material, not kept clean, or not properly sealed, raised, spaced or movable to allow accessibility for cleaning on all sides, above and underneath the unit.",Not Critical,8,A,11/22/22,12/4/23,40.825187,-73.940179
EL CANTINERO,86,UNIVERSITY PLACE,Manhattan,10003,86 UNIVERSITY PLACE Manhattan 10003,"86 university place manhattan, ny 10003",Mexican,2/28/22,Violations were cited in the following area(s).,06D,"Food contact surface not properly washed, rinsed and sanitized after each use and following any activity when contamination may have occurred.",Critical,12,A,2/28/22,12/4/23,40.7335688,-73.993105
PATRON MEXICAN GRILL,608,9 AVENUE,Manhattan,10036,608 9 avenue Manhattan 10036,"608 9th avenue manhattan, ny 10036",Mexican,10/7/22,Violations were cited in the following area(s).,10F,"Non-food contact surface or equipment made of unacceptable material, not kept clean, or not properly sealed, raised, spaced or movable to allow accessibility for cleaning on all sides, above and underneath the unit.",Not Critical,11,A,10/7/22,12/4/23,40.7593338,-73.991954
CHINELOS II DELI-GROCERY RESTAURANT,530,WEST 136 STREET,Manhattan,10031,530 WEST 136 STREET Manhattan 10031,530 west 136th street manhattan 10031,Mexican,2/8/23,Violations were cited in the following area(s).,02G,Cold TCS food item held above 41 ¬∞F; smoked or processed fish held above 38 ¬∞F; intact raw eggs held above 45 ¬∞F; or reduced oxygen packaged (ROP) TCS foods held above required temperatures except during active necessary preparation.,Critical,23,B,2/8/23,12/4/23,40.8201317,-73.953103
PLANET TACO,705,9 AVENUE,Manhattan,10019,705 9 avenue Manhattan 10019,"705 9th venue manhattan, ny 10019",Mexican,8/22/22,Violations were cited in the following area(s).,08A,"Establishment is not free of harborage or conditions conducive to rodents, insects or other pests.",Not Critical,9,A,8/22/22,12/4/23,40.7624242,-73.989734
ANEJO TRIBECA,31,WALKER STREET,Manhattan,10013,31 WALKER STREET Manhattan 10013,"31 walker street manhattan, ny 10013",Mexican,7/7/22,Violations were cited in the following area(s).,10F,"Non-food contact surface or equipment made of unacceptable material, not kept clean, or not properly sealed, raised, spaced or movable to allow accessibility for cleaning on all sides, above and underneath the unit.",Not Critical,13,A,7/7/22,12/4/23,40.7192989,-74.00404
DOS CAMINOS SOHO,475,WEST BROADWAY,Manhattan,10012,475 WEST BROADWAY Manhattan 10012,"475 west broadway manhattan, ny 10012",Mexican,3/29/23,Violations were cited in the following area(s).,04L,Evidence of mice or live mice in establishment's food or non-food areas.,Critical,13,A,3/29/23,12/4/23,40.7265726,-74.000202
AMERICAN RESTAURANT,1467,AMSTERDAM AVENUE,Manhattan,10027,1467 AMSTERDAM avenue Manhattan 10027,"1467 amsterdam avenue manhattan, ny 10027",Mexican,8/4/23,Violations were cited in the following area(s).,04K,Evidence of rats or live rats in establishment's food or non-food areas.,Critical,11,A,8/4/23,12/4/23,40.8171785,-73.953474
LA ESQUINA,1402,2 AVENUE,Manhattan,10021,1402 2 avenue Manhattan 10021,"1402 2nd avenue manhattan, ny 10021",Mexican,12/1/22,Violations were cited in the following area(s).,08A,"Establishment is not free of harborage or conditions conducive to rodents, insects or other pests.",Not Critical,18,B,12/1/22,12/4/23,40.7693694,-73.95793
BLUE MAIZ,606,8 AVENUE,Manhattan,10018,606 8 avenue Manhattan 10018,"606 8th avenue manhattan, ny 10018",Mexican,5/4/23,Violations were cited in the following area(s).,10F,"Non-food contact surface or equipment made of unacceptable material, not kept clean, or not properly sealed, raised, spaced or movable to allow accessibility for cleaning on all sides, above and underneath the unit.",Not Critical,12,A,5/4/23,12/4/23,40.7555569,-73.990998
TORTARIA,94,UNIVERSITY PLACE,Manhattan,10003,94 UNIVERSITY PLACE Manhattan 10003,"94 university place manhattan, ny 10003",Mexican,4/18/22,Violations were cited in the following area(s).,09B,Thawing procedures improper.,Not Critical,12,A,4/18/22,12/4/23,40.7337417,-73.992957
AGAVE,140,7 AVENUE SOUTH,Manhattan,10014,140 7 avenue SOUTH Manhattan 10014,"140 7th avenue south manhattan, ny 10014",Mexican,3/30/23,Violations were cited in the following area(s).,06F,"Wiping cloths not stored clean and dry, or in a sanitizing solution, between uses.",Critical,22,B,3/30/23,12/4/23,40.7347272,-74.002176
LA ESQUINA,200,WEST 55 STREET,Manhattan,10019,200 WEST 55 STREET Manhattan 10019,"200 west 55 street manhattan, ny 10019",Mexican,2/16/23,Violations were cited in the following area(s).,10F,"Non-food contact surface or equipment made of unacceptable material, not kept clean, or not properly sealed, raised, spaced or movable to allow accessibility for cleaning on all sides, above and underneath the unit.",Not Critical,10,A,2/16/23,12/4/23,40.7642841,-73.98117
CAFE HABANA,17,PRINCE STREET,Manhattan,10012,17 PRINCE STREET Manhattan 10012,"17 prince street manhattan, ny 10012",Mexican,12/19/22,Violations were cited in the following area(s).,06D,"Food contact surface not properly washed, rinsed and sanitized after each use and following any activity when contamination may have occurred.",Critical,7,A,12/19/22,12/4/23,40.7227709,-73.99426
TORO LOCO,15,STONE STREET,Manhattan,10004,15 STONE STREET Manhattan 10004,"15 stone street manhattan, ny 10004",Mexican,8/9/22,Violations were cited in the following area(s).,09B,Thawing procedure improper.,Not Critical,13,A,8/9/22,12/4/23,40.7040264,-74.012068
CANTINA TAQUERIA & TEQUILA BAR,329,LENOX AVENUE,Manhattan,10027,329 LENOX avenue Manhattan 10027,"329 lenox avenue manhattan, ny 10027",Mexican,1/12/23,Violations were cited in the following area(s).,10A,"Toilet facility not maintained or provided with toilet paper, waste receptacle or self-closing door.",Not Critical,21,B,1/12/23,12/4/23,40.8087565,-73.944778
TULCIMEXICO RESTAURANT,2798,8 AVENUE,Manhattan,10039,2798 8 avenue Manhattan 10039,"2798 8 avenue manhattan, ny 10039",Mexican,11/22/22,Violations were cited in the following area(s).,06D,"Food contact surface not properly washed, rinsed and sanitized after each use and following any activity when contamination may have occurred.",Critical,8,A,11/22/22,12/4/23,40.825187,-73.940179
CALEXICO,1491,2 AVENUE,Manhattan,10075,1491 2 avenue Manhattan 10075,"1491 2 avenue manhattan , ny 10075",Mexican,7/13/22,Violations were cited in the following area(s).,04N,"Filth flies or food/refuse/sewage associated with (FRSA) flies or other nuisance pests in establishment‚Äôs food and/or non-food areas. FRSA flies include house flies, blow flies, bottle flies, flesh flies, drain flies, Phorid flies and fruit flies.",Critical,13,A,7/13/22,12/4/23,40.7724317,-73.955722
DOS TOROS,636,LEXINGTON AVENUE,Manhattan,10022,636 LEXINGTON avenue Manhattan 10022,"636 lexington avenue manhattan, ny 10022",Mexican,8/12/22,Violations were cited in the following area(s).,02B,Hot TCS food item not held at or above 140 ¬∞F.,Critical,13,A,8/12/22,12/4/23,40.7590915,-73.970477
EL GALLO TAQUERIA,369,BROOME STREET,Manhattan,10013,369 BROOME STREET Manhattan 10013,"369 broome street manhattan, ny 10013",Mexican,1/26/22,Violations were cited in the following area(s).,10F,"Non-food contact surface improperly constructed. Unacceptable material used. Non-food contact surface or equipment improperly maintained and/or not properly sealed, raised, spaced or movable to allow accessibility for cleaning on all sides, above and underneath the unit.",Not Critical,10,A,1/26/22,12/4/23,40.7201196,-73.99592
787 COFFEE,66,PEARL STREET,Manhattan,10004,66 PEARL STREET Manhattan 10004,"66 pearl street manhattan, ny  10004",Mexican,1/26/22,Violations were cited in the following area(s).,10I,"Single service item reused, improperly stored, dispensed; not used when required.",Not Critical,7,A,1/26/22,12/4/23,40.7036038,-74.010932
FONDA,139,DUANE STREET,Manhattan,10013,139 DUANE STREET Manhattan 10013,"139 duane street manhattan, ny 10013",Mexican,1/26/23,Violations were cited in the following area(s).,10B,Anti-siphonage or back-flow prevention device not provided where required; equipment or floor not properly drained; sewage disposal system in disrepair or not functioning properly. Condensation or liquid waste improperly disposed of.,Not Critical,13,A,1/26/23,12/4/23,40.7163124,-74.00777
RANCHO TEQUILERA,718,AMSTERDAM AVENUE,Manhattan,10025,718 AMSTERDAM avenue Manhattan 10025,"718 amsterdam avenue manhattan, ny 10025",Mexican,3/29/23,Violations were cited in the following area(s).,10F,"Non-food contact surface or equipment made of unacceptable material, not kept clean, or not properly sealed, raised, spaced or movable to allow accessibility for cleaning on all sides, above and underneath the unit.",Not Critical,11,A,3/29/23,12/4/23,40.7933351,-73.970898
BAR TULIX,25,WEST HOUSTON STREET,Manhattan,10012,25 WEST HOUSTON STREET Manhattan 10012,"25 west houston street manhattan, ny 10012",Mexican,1/24/23,Violations were cited in the following area(s).,02B,Hot TCS food item not held at or above 140 ¬∞F.,Critical,19,B,1/24/23,12/4/23,40.7259248,-73.997904
LA LOTERIA,29,7 AVENUE SOUTH,Manhattan,10014,29 7 avenue SOUTH Manhattan 10014,"29 7th avenue south manhattan, ny 10014",Mexican,4/12/23,Violations were cited in the following area(s).,04L,Evidence of mice or live mice in establishment's food or non-food areas.,Critical,12,A,4/12/23,12/4/23,40.7308049,-74.004395
CHINELOS II DELI-GROCERY RESTAURANT,530,WEST 136 STREET,Manhattan,10031,530 WEST 136 STREET Manhattan 10031,"530 west 136th street manhattan, ny 10031",Mexican,2/8/23,Violations were cited in the following area(s).,06D,"Food contact surface not properly washed, rinsed and sanitized after each use and following any activity when contamination may have occurred.",Critical,23,B,2/8/23,12/4/23,40.8201317,-73.953103
EL KALLEJON BOTANAS,209,EAST 117 STREET,Manhattan,10035,209 east 117 STREET Manhattan 10035,"209 east 117th street manhattan, ny 10035",Mexican,7/5/22,Violations were cited in the following area(s).,04L,Evidence of mice or live mice in establishment's food or non-food areas.,Critical,13,A,7/5/22,12/4/23,40.7984306,-73.939051
REFRIED BEANS,591,FORT WASHINGTON AVENUE,Manhattan,10033,591 FORT WASHINGTON avenue Manhattan 10033,"591 fort washington avenue manhattan, ny 10033",Mexican,4/13/23,Violations were cited in the following area(s).,09A,"Swollen, leaking, rusted or otherwise damaged canned food to be returned to distributor not segregated from intact product and clearly labeled DO NOT USE",Not Critical,13,A,4/13/23,12/4/23,40.8546638,-73.937036
MEXICUE,160,8 AVENUE,Manhattan,10011,160 8 avenue Manhattan 10011,"160 8th avenue manhattan,, ny 10011",Mexican,6/16/22,Violations were cited in the following area(s).,10F,"Non-food contact surface improperly constructed. Unacceptable material used. Non-food contact surface or equipment improperly maintained and/or not properly sealed, raised, spaced or movable to allow accessibility for cleaning on all sides, above and underneath the unit.",Not Critical,12,A,6/16/22,12/4/23,40.7421546,-74.000758
SAN LOCO,111,STANTON STREET,Manhattan,10002,111 STANTON STREET Manhattan 10002,"111 stanton street manhattan, ny 10002",Mexican,7/27/22,Violations were cited in the following area(s).,03A,"Food, prohibited, from unapproved or unknown source, home canned or home prepared. Animal slaughtered, butchered or dressed (eviscerated, skinned) in establishment. Reduced Oxygen Packaged (ROP) fish not frozen before processing. ROP food prepared on premises transported to another site.",Critical,0,A,7/27/22,12/4/23,40.7210933,-73.987366
TAQUERIA DIANA,129,2 AVENUE,Manhattan,10003,129 2 avenue Manhattan 10003,"129 2nd avenue manhattan, ny 10003",Mexican,2/21/23,Violations were cited in the following area(s).,08A,"Establishment is not free of harborage or conditions conducive to rodents, insects or other pests.",Not Critical,9,A,2/21/23,12/4/23,40.7284274,-73.987801
TACUBA,802,9 AVENUE,Manhattan,10019,802 9 avenue Manhattan 10019,"802 9th avenue manhattan, ny 10019",Mexican,6/14/23,Violations were cited in the following area(s).,10B,Anti-siphonage or back-flow prevention device not provided where required; equipment or floor not properly drained; sewage disposal system in disrepair or not functioning properly. Condensation or liquid waste improperly disposed of.,Not Critical,13,A,6/14/23,12/4/23,40.7654954,-73.987466
LA PALAPA,77,ST MARKS PLACE,Manhattan,10003,77 ST MARKS PLACE Manhattan 10003,"77 street marks place manhattan, ny 10003",Mexican,4/19/22,Violations were cited in the following area(s).,04L,Evidence of mice or live mice present in facility's food and/or non-food areas.,Critical,12,A,4/19/22,12/4/23,40.727837,-73.985864
LA GUADALUPE RESTAURANT,179,EAST 115 STREET,Manhattan,10029,179 east 115 STREET Manhattan 10029,"179 east 115th street manhattan, ny 10029",Mexican,8/4/22,Violations were cited in the following area(s).,10F,"Non-food contact surface or equipment made of unacceptable material, not kept clean, or not properly sealed, raised, spaced or movable to allow accessibility for cleaning on all sides, above and underneath the unit.",Not Critical,8,A,8/4/22,12/4/23,40.7975424,-73.941168
CHIPOTLE MEXICAN GRILL #3641uy;,350,5 AVENUE,Manhattan,10118,350 5 avenue Manhattan 10118,"350 5th avenue manhattan, ny  10118",Mexican,4/7/23,Violations were cited in the following area(s).,04N,"Filth flies or food/refuse/sewage associated with (FRSA) flies or other nuisance pests in establishment‚Äôs food and/or non-food areas. FRSA flies include house flies, blow flies, bottle flies, flesh flies, drain flies, Phorid flies and fruit flies.",Critical,11,A,4/7/23,12/4/23,40.7482689,-73.98469
FACTORY TAMAL,34,LUDLOW STREET,Manhattan,10002,34 LUDLOW STREET Manhattan 10002,"34 ludlow street manhattan, ny 10002",Mexican,6/6/23,Violations were cited in the following area(s).,10E,"Accurate thermometer not provided or properly located in refrigerated, cold storage or hot holding equipment",Not Critical,8,A,6/6/23,12/4/23,40.7159389,-73.990469
EL PATIO MEXICANO RESTAURANT,3764,BROADWAY,Manhattan,10032,3764 BROADWAY Manhattan 10032,"3764 broadway manhattan, ny 10032",Mexican,4/30/23,Violations were cited in the following area(s).,04L,Evidence of mice or live mice in establishment's food or non-food areas.,Critical,10,A,4/30/23,12/4/23,40.8337174,-73.945115
BLUE AGAVE,11,DOYERS STREET,Manhattan,10013,11 DOYERS STREET Manhattan 10013,"11 doyers street manhattan, ny 10013",Mexican,11/16/22,Violations were cited in the following area(s).,06D,"Food contact surface not properly washed, rinsed and sanitized after each use and following any activity when contamination may have occurred.",Critical,5,A,11/16/22,12/4/23,40.7144956,-73.998128
BARRIO CHINO,253,BROOME STREET,Manhattan,10002,253 BROOME STREET Manhattan 10002,"253 broome street manhattan, ny 10002",Mexican,3/8/23,Violations were cited in the following area(s).,08C,"Pesticide not properly labeled or used by unlicensed individual. Pesticide, other toxic chemical improperly used/stored. Unprotected, unlocked bait station used.",Not Critical,27,B,3/8/23,12/4/23,40.7180304,-73.989971
ROSA MEXICANO,61,COLUMBUS AVENUE,Manhattan,10023,61 COLUMBUS avenue Manhattan 10023,"61 columbus avenue manhattan, ny 10023",Mexican,2/3/22,Violations were cited in the following area(s).,08A,Facility not vermin proof. Harborage or conditions conducive to attracting vermin to the premises and/or allowing vermin to exist.,Not Critical,12,A,2/3/22,12/4/23,40.7711957,-73.983328
LA ESQUINA,200,WEST 55 STREET,Manhattan,10019,200 WEST 55 STREET Manhattan 10019,"200 west 55th street manhattan, ny 10019",Mexican,9/14/22,Violations were cited in the following area(s).,08A,"Establishment is not free of harborage or conditions conducive to rodents, insects or other pests.",Not Critical,0,A,9/14/22,12/4/23,40.7642841,-73.98117
EL COCO,202,8 AVENUE,Manhattan,10011,202 8 avenue Manhattan 10011,"202 8th avenue manhattan, ny 10011",Mexican,5/25/22,Violations were cited in the following area(s).,10H,Proper sanitization not provided for utensil ware washing operation.,Not Critical,9,A,5/25/22,12/4/23,40.7436038,-73.999697
EL KALLEJON BOTANAS,209,EAST 117 STREET,Manhattan,10035,209 east 117 STREET Manhattan 10035,"209 east 117th street manhattan, ny 10035",Mexican,7/5/22,Violations were cited in the following area(s).,18-11,Food Protection Certificate not available for inspection,Not Critical,13,A,7/5/22,12/4/23,40.7984306,-73.939051
TACUBA,802,9 AVENUE,Manhattan,10019,802 9 avenue Manhattan 10019,"802 9th avenue manhattan, ny 10019",Mexican,6/14/23,Violations were cited in the following area(s).,02G,Cold TCS food item held above 41 ¬∞F; smoked or processed fish held above 38 ¬∞F; intact raw eggs held above 45 ¬∞F; or reduced oxygen packaged (ROP) TCS foods held above required temperatures except during active necessary preparation.,Critical,13,A,6/14/23,12/4/23,40.7654954,-73.987466
LA ESQUINA,200,WEST 55 STREET,Manhattan,10019,200 WEST 55 STREET Manhattan 10019,"200 west 55th street manhattan, ny 10019",Mexican,9/14/22,Violations were cited in the following area(s).,06A,Personal cleanliness is inadequate. Outer garment soiled with possible contaminant. Effective hair restraint not worn where required. Jewelry is worn on hands or arms. Fingernail polish worn or fingernails not kept clean and trimmed.,Critical,0,A,9/14/22,12/4/23,40.7642841,-73.98117
SAN LOCO,111,STANTON STREET,Manhattan,10002,111 STANTON STREET Manhattan 10002,"111 stanton street manhattan, ny 10002",Mexican,2/23/23,Violations were cited in the following area(s).,10F,"Non-food contact surface or equipment made of unacceptable material, not kept clean, or not properly sealed, raised, spaced or movable to allow accessibility for cleaning on all sides, above and underneath the unit.",Not Critical,2,A,2/23/23,12/4/23,40.7210933,-73.987366
MAD DOG & BEANS MEXICAN CANTINA,5,EAST 38 STREET,Manhattan,10016,5 east 38 STREET Manhattan 10016,"5 east 38th street manhattan, ny 10016",Mexican,9/14/22,Violations were cited in the following area(s).,04L,Evidence of mice or live mice in establishment's food or non-food areas.,Critical,0,A,9/14/22,12/4/23,40.7507388,-73.982199
CHIPOTLE MEXICAN GRILL#2964,601,8 AVENUE,Manhattan,10018,601 8 avenue Manhattan 10018,"601 8th avenue manhattan, ny 10018",Mexican,4/27/22,Violations were cited in the following area(s).,06D,"Food contact surface not properly washed, rinsed and sanitized after each use and following any activity when contamination may have occurred.",Critical,7,A,4/27/22,12/4/23,40.7555075,-73.991056
TAQUERIA ST MARKS PL,79,SAINT MARKS PLACE,Manhattan,10003,79 SAINT MARKS PLACE Manhattan 10003,"79 saint marks place manhattan, ny 10003",Mexican,11/15/22,Violations were cited in the following area(s).,04N,"Filth flies or food/refuse/sewage associated with (FRSA) flies or other nuisance pests in establishment‚Äôs food and/or non-food areas. FRSA flies include house flies, blow flies, bottle flies, flesh flies, drain flies, Phorid flies and fruit flies.",Critical,12,A,11/15/22,12/4/23,40.7278068,-73.985792
BAR TULIX,25,WEST HOUSTON STREET,Manhattan,10012,25 WEST HOUSTON STREET Manhattan 10012,"25 west houston street manhattan, ny 10012",Mexican,1/24/23,Violations were cited in the following area(s).,06F,"Wiping cloths not stored clean and dry, or in a sanitizing solution, between uses.",Critical,19,B,1/24/23,12/4/23,40.7259248,-73.997904
ZONA TRIBECA MEZCALERIA,353,GREENWICH STREET,Manhattan,10013,353 GREENWICH STREET Manhattan 10013,"353 greenwich street manhattan, ny 10013",Mexican,3/7/23,Violations were cited in the following area(s).,04K,Evidence of rats or live rats in establishment's food or non-food areas.,Critical,11,A,3/7/23,12/4/23,40.7186919,-74.010408
DOS TOROS,2911,BROADWAY,Manhattan,10025,2911 BROADWAY Manhattan 10025,"2911 broadway manhattan, ny 10025",Mexican,7/19/23,Violations were cited in the following area(s).,02B,Hot TCS food item not held at or above 140 ¬∞F.,Critical,9,A,7/19/23,12/4/23,40.8064452,-73.965048
GREAT BURRITO RESTAURANT,100,WEST 23 STREET,Manhattan,10011,100 WEST 23 STREET Manhattan 10011,"100 west 23rd street manhattan, ny 10011",Mexican,10/13/22,Violations were cited in the following area(s).,04N,"Filth flies or food/refuse/sewage associated with (FRSA) flies or other nuisance pests in establishment‚Äôs food and/or non-food areas. FRSA flies include house flies, blow flies, bottle flies, flesh flies, drain flies, Phorid flies and fruit flies.",Critical,10,A,10/13/22,12/4/23,40.7430739,-73.993237
HAPPY BURRITO,211,EAST 14 STREET,Manhattan,10003,211 east 14 STREET Manhattan 10003,211 east 14th street manhattan 10003,Mexican,10/20/22,Violations were cited in the following area(s).,10F,"Non-food contact surface or equipment made of unacceptable material, not kept clean, or not properly sealed, raised, spaced or movable to allow accessibility for cleaning on all sides, above and underneath the unit.",Not Critical,10,A,10/20/22,12/4/23,40.7330851,-73.986678
MADE IN MEXICO,3950,10 AVENUE,Manhattan,10034,3950 10 avenue Manhattan 10034,"3950 10th avenue manhattan, ny 10034",Mexican,3/10/22,Violations were cited in the following area(s).,08A,Facility not vermin proof. Harborage or conditions conducive to attracting vermin to the premises and/or allowing vermin to exist.,Not Critical,11,A,3/10/22,12/4/23,40.8671176,-73.916983
TULCINGO DEL VALLE,665,10 AVENUE,Manhattan,10036,665 10 avenue Manhattan 10036,"665 10th avenue manhattan, ny 10036",Mexican,2/8/22,Violations were cited in the following area(s).,04H,"Raw, cooked or prepared food is adulterated, contaminated, cross-contaminated, or not discarded in accordance with HACCP plan.",Critical,13,A,2/8/22,12/4/23,40.7626742,-73.993268
EL TORO MEXICAN GRILL,69,NEW STREET,Manhattan,10004,69 NEW STREET Manhattan 10004,"69 new street manhattan, ny 10004",Mexican,3/24/22,Violations were cited in the following area(s).,10F,"Non-food contact surface improperly constructed. Unacceptable material used. Non-food contact surface or equipment improperly maintained and/or not properly sealed, raised, spaced or movable to allow accessibility for cleaning on all sides, above and underneath the unit.",Not Critical,9,A,3/24/22,12/4/23,40.7055003,-74.012396
ANEJO TRIBECA,31,WALKER STREET,Manhattan,10013,31 WALKER STREET Manhattan 10013,"31 walker street manhattan, ny 10013",Mexican,7/7/22,Violations were cited in the following area(s).,10B,Anti-siphonage or back-flow prevention device not provided where required; equipment or floor not properly drained; sewage disposal system in disrepair or not functioning properly. Condensation or liquid waste improperly disposed of.,Not Critical,13,A,7/7/22,12/4/23,40.7192989,-74.00404
DOS TOROS,11,CARMINE STREET,Manhattan,10014,11 CARMINE STREET Manhattan 10014,"11 carmine street manhattan, ny 10014",Mexican,6/6/22,Violations were cited in the following area(s).,10B,Plumbing not properly installed or maintained; anti-siphonage or backflow prevention device not provided where required; equipment or floor not properly drained; sewage disposal system in disrepair or not functioning properly.,Not Critical,12,A,6/6/22,12/4/23,40.7304152,-74.002201
MEXICUE,160,8 AVENUE,Manhattan,10011,160 8 avenue Manhattan 10011,"160 8th avenue manhattan, ny 10011",Mexican,6/16/22,Violations were cited in the following area(s).,02G,Cold food item held above 41¬∫ F (smoked fish and reduced oxygen packaged foods above 38 ¬∫F) except during necessary preparation.,Critical,12,A,6/16/22,12/4/23,40.7421546,-74.000758
QUESADILLAS DONA MATY,158,EAST 116 STREET,Manhattan,10029,158 east 116 STREET Manhattan 10029,"158 east 116th street manhattan, ny 10029",Mexican,10/5/23,Violations were cited in the following area(s).,06A,Personal cleanliness is inadequate. Outer garment soiled with possible contaminant. Effective hair restraint not worn where required. Jewelry worn on hands or arms. Fingernail polish worn or fingernails not kept clean and trimmed.,Critical,23,B,10/5/23,12/4/23,40.7983713,-73.941066
CHIPOTLE MEXICAN GRILL,165-167,E 116TH ST,Manhattan,10029,165-167 E 116TH ST Manhattan 10029,"165-167 east 116th st manhattan, ny 10029",Mexican,3/16/23,Violations were cited in the following area(s).,10F,"Non-food contact surface or equipment made of unacceptable material, not kept clean, or not properly sealed, raised, spaced or movable to allow accessibility for cleaning on all sides, above and underneath the unit.",Not Critical,4,A,3/16/23,12/4/23,40.7983355,-73.940936
STREET TACO,2672,BROADWAY,Manhattan,10025,2672 BROADWAY Manhattan 10025,"2672 broadway manhattan, ny 10025",Mexican,8/3/22,Violations were cited in the following area(s).,02G,Cold TCS food item held above 41 ¬∞F; smoked or processed fish held above 38 ¬∞F; intact raw eggs held above 45 ¬∞F; or reduced oxygen packaged (ROP) TCS foods held above required temperatures except during active necessary preparation.,Critical,13,A,8/3/22,12/4/23,40.798256,-73.969141
AL HORNO LEAN MEXICAN KITCHEN INC,417,WEST 47 STREET,Manhattan,10036,417 WEST 47 STREET Manhattan 10036,"417 west 47th street manhattan, ny 10036",Mexican,9/19/22,Violations were cited in the following area(s).,02G,Cold TCS food item held above 41 ¬∞F; smoked or processed fish held above 38 ¬∞F; intact raw eggs held above 45 ¬∞F; or reduced oxygen packaged (ROP) TCS foods held above required temperatures except during active necessary preparation.,Critical,0,A,9/19/22,12/4/23,40.7619248,-73.991062
LOS MARISCOS,409,WEST 15 STREET,Manhattan,10011,409 WEST 15 STREET Manhattan 10011,"409 west 15th street manhattan, ny 10011",Mexican,12/20/22,Violations were cited in the following area(s).,02G,Cold TCS food item held above 41 ¬∞F; smoked or processed fish held above 38 ¬∞F; intact raw eggs held above 45 ¬∞F; or reduced oxygen packaged (ROP) TCS foods held above required temperatures except during active necessary preparation.,Critical,7,A,12/20/22,12/4/23,40.7419376,-74.005554
BLUE CORN RESTAURANT,1969,AMSTERDAM AVENUE,Manhattan,10032,1969 AMSTERDAM avenue Manhattan 10032,"1969 amsterdam avenue manhattan, ny 10032",Mexican,3/10/22,Violations were cited in the following area(s).,09C,Food contact surface not properly maintained.,Not Critical,7,A,3/10/22,12/4/23,40.8331064,-73.941837
TULCINGO DEL VALLE,665,10 AVENUE,Manhattan,10036,665 10 avenue Manhattan 10036,"665 10 avenue manhattan, ny 10036",Mexican,3/23/23,Violations were cited in the following area(s).,10F,"Non-food contact surface or equipment made of unacceptable material, not kept clean, or not properly sealed, raised, spaced or movable to allow accessibility for cleaning on all sides, above and underneath the unit.",Not Critical,2,A,3/23/23,12/4/23,40.7626742,-73.993268
L CHINGON MEXICAN CUISINE,400,AUDUBON AVENUE,Manhattan,10033,400 AUDUBON avenue Manhattan 10033,"400 audubon avenue manhattan, ny 10033",Mexican,1/13/23,Violations were cited in the following area(s).,08C,"Pesticide not properly labeled or used by unlicensed individual. Pesticide, other toxic chemical improperly used/stored. Unprotected, unlocked bait station used.",Not Critical,2,A,1/13/23,12/4/23,40.8512099,-73.930537
LA ESQUINA,1402,2 AVENUE,Manhattan,10021,1402 2 avenue Manhattan 10021,"1402 2nd avenue manhattan, ny 10021",Mexican,12/1/22,Violations were cited in the following area(s).,10B,Anti-siphonage or back-flow prevention device not provided where required; equipment or floor not properly drained; sewage disposal system in disrepair or not functioning properly. Condensation or liquid waste improperly disposed of.,Not Critical,18,B,12/1/22,12/4/23,40.7693694,-73.95793
BLUE MAIZ,606,8 AVENUE,Manhattan,10018,606 8 avenue Manhattan 10018,"606 8th avenue manhattan, ny 10018",Mexican,3/10/22,Violations were cited in the following area(s).,02B,Hot food item not held at or above 140¬∫ F.,Critical,27,B,3/10/22,12/4/23,40.7555569,-73.990998
RANCHO TEQUILERIA,741,9 AVENUE,Manhattan,10019,741 9 avenue Manhattan 10019,"741 9th avenue manhattan , ny 10019",Mexican,6/23/23,Violations were cited in the following area(s).,04N,"Filth flies or food/refuse/sewage associated with (FRSA) flies or other nuisance pests in establishment‚Äôs food and/or non-food areas. FRSA flies include house flies, blow flies, bottle flies, flesh flies, drain flies, Phorid flies and fruit flies.",Critical,13,A,6/23/23,12/4/23,40.7635769,-73.988889
AZULE CANTINA,31,WEST 52 STREET,Manhattan,10019,31 WEST 52 STREET Manhattan 10019,"31 west 52nd street manhattan, ny 10019",Mexican,7/26/22,Violations were cited in the following area(s).,10F,"Non-food contact surface or equipment made of unacceptable material, not kept clean, or not properly sealed, raised, spaced or movable to allow accessibility for cleaning on all sides, above and underneath the unit.",Not Critical,13,A,7/26/22,12/4/23,40.7604847,-73.977937
LOS MARISCOS,409,WEST 15 STREET,Manhattan,10011,409 WEST 15 STREET Manhattan 10011,"409 west 15th street manhattan, ny 10011",Mexican,1/27/22,Violations were cited in the following area(s).,10F,"Non-food contact surface improperly constructed. Unacceptable material used. Non-food contact surface or equipment improperly maintained and/or not properly sealed, raised, spaced or movable to allow accessibility for cleaning on all sides, above and underneath the unit.",Not Critical,2,A,1/27/22,12/4/23,40.7419376,-74.005554
QUESADILLAS DONA MATY,158,EAST 116 STREET,Manhattan,10029,158 east 116 STREET Manhattan 10029,"158 east 116th street manhattan, ny 10029",Mexican,10/5/23,Violations were cited in the following area(s).,08A,"Establishment is not free of harborage or conditions conducive to rodents, insects or other pests.",Not Critical,23,B,10/5/23,12/4/23,40.7983713,-73.941066
LA FIESTA RESTAURANT,3789,BROADWAY,Manhattan,10032,3789 BROADWAY Manhattan 10032,"3789 broadway manhattan, ny 10032",Mexican,4/13/23,Violations were cited in the following area(s).,10F,"Non-food contact surface or equipment made of unacceptable material, not kept clean, or not properly sealed, raised, spaced or movable to allow accessibility for cleaning on all sides, above and underneath the unit.",Not Critical,7,A,4/13/23,12/4/23,40.8343457,-73.944677
TORTARIA,94,UNIVERSITY PLACE,Manhattan,10003,94 UNIVERSITY PLACE Manhattan 10003,"94 university place manhattan, ny 10003",Mexican,11/2/23,Violations were cited in the following area(s).,04L,Evidence of mice or live mice in establishment's food or non-food areas.,Critical,12,A,11/2/23,12/4/23,40.7337417,-73.992957
DOS CAMINOS SOHO,475,WEST BROADWAY,Manhattan,10012,475 WEST BROADWAY Manhattan 10012,"475 west broadway manhattan, ny 10012",Mexican,3/29/23,Violations were cited in the following area(s).,04N,"Filth flies or food/refuse/sewage associated with (FRSA) flies or other nuisance pests in establishment‚Äôs food and/or non-food areas. FRSA flies include house flies, blow flies, bottle flies, flesh flies, drain flies, Phorid flies and fruit flies.",Critical,13,A,3/29/23,12/4/23,40.7265726,-74.000202
COSME,35,EAST 21 STREET,Manhattan,10010,35 east 21 STREET Manhattan 10010,"35 east 21st street manhattan , ny 0010",Mexican,4/18/23,Violations were cited in the following area(s).,02G,Cold TCS food item held above 41 ¬∞F; smoked or processed fish held above 38 ¬∞F; intact raw eggs held above 45 ¬∞F; or reduced oxygen packaged (ROP) TCS foods held above required temperatures except during active necessary preparation.,Critical,9,A,4/18/23,12/4/23,40.7395685,-73.988871
ATLA,372,LAFAYETTE STREET,Manhattan,10012,372 LAFAYETTE STREET Manhattan 10012,"372 lafayette street manhattan, ny 10012",Mexican,4/6/23,Violations were cited in the following area(s).,10F,"Non-food contact surface or equipment made of unacceptable material, not kept clean, or not properly sealed, raised, spaced or movable to allow accessibility for cleaning on all sides, above and underneath the unit.",Not Critical,10,A,4/6/23,12/4/23,40.7271323,-73.993765
DOS CAMINOS,1567,BROADWAY,Manhattan,10036,1567 BROADWAY Manhattan 10036,"1567 broadway manhattan, ny 10036",Mexican,11/17/22,Violations were cited in the following area(s).,04H,"Raw, cooked or prepared food is adulterated, contaminated, cross-contaminated, or not discarded in accordance with HACCP plan.",Critical,12,A,11/17/22,12/4/23,40.7592398,-73.985168
BLUE MAIZ,606,8 AVENUE,Manhattan,10018,606 8 avenue Manhattan 10018,"606 8th avenue manhattan, ny 10018",Mexican,5/4/23,Violations were cited in the following area(s).,10B,Anti-siphonage or back-flow prevention device not provided where required; equipment or floor not properly drained; sewage disposal system in disrepair or not functioning properly. Condensation or liquid waste improperly disposed of.,Not Critical,12,A,5/4/23,12/4/23,40.7555569,-73.990998
CASA CARMEN,114,FRANKLIN STREET,Manhattan,10013,114 FRANKLIN STREET Manhattan 10013,"114 franklin street manhattan, ny 10013",Mexican,5/10/23,Violations were cited in the following area(s).,06D,"Food contact surface not properly washed, rinsed and sanitized after each use and following any activity when contamination may have occurred.",Critical,13,A,5/10/23,12/4/23,40.7186263,-74.006082
CAZUELA MEXICANA,207,EAST 117 STREET,Manhattan,10035,207 east 117 STREET Manhattan 10035,"207 east 117th street manhattan, ny 10035",Mexican,8/23/23,Violations were cited in the following area(s).,04L,Evidence of mice or live mice in establishment's food or non-food areas.,Critical,26,B,8/23/23,12/4/23,40.7984444,-73.939083
CILANTRO,485,COLUMBUS AVENUE,Manhattan,10024,485 COLUMBUS avenue Manhattan 10024,"485 columbus avenue manhattan, ny 10024",Mexican,2/17/22,Violations were cited in the following area(s).,10F,"Non-food contact surface improperly constructed. Unacceptable material used. Non-food contact surface or equipment improperly maintained and/or not properly sealed, raised, spaced or movable to allow accessibility for cleaning on all sides, above and underneath the unit.",Not Critical,4,A,2/17/22,12/4/23,40.7847694,-73.973412
LUPE'S EAST L.A. KITCHEN,110,AVENUE OF THE AMERICAS,Manhattan,10013,110 avenue OF THE AMERICAS Manhattan 10013,"110 avenue of the americas manhattan, ny 10013",Mexican,2/11/22,Violations were cited in the following area(s).,04L,Evidence of mice or live mice present in facility's food and/or non-food areas.,Critical,0,A,2/11/22,12/4/23,40.7236795,-74.004719
MEXICO LINDO RESTAURANT,459,2 AVENUE,Manhattan,10010,459 2 avenue Manhattan 10010,"459 2nd avenue manhattan, ny 10010",Mexican,3/2/22,Violations were cited in the following area(s).,02G,Cold food item held above 41¬∫ F (smoked fish and reduced oxygen packaged foods above 38 ¬∫F) except during necessary preparation.,Critical,12,A,3/2/22,12/4/23,40.7396441,-73.979615
BLUE MAIZ,606,8 AVENUE,Manhattan,10018,606 8 avenue Manhattan 10018,"606 8th avenue manhattan, ny 10018",Mexican,3/10/22,Violations were cited in the following area(s).,04O,Live animals other than fish in tank or service animal present in facility's food and/or non-food areas.,Critical,27,B,3/10/22,12/4/23,40.7555569,-73.990998
SOL MAYA RESTAURANT,2061,2 AVENUE,Manhattan,10029,2061 2 avenue Manhattan 10029,"2061 2nd avenue manhattan, ny 10029",Mexican,5/4/23,Violations were cited in the following area(s).,10F,"Non-food contact surface or equipment made of unacceptable material, not kept clean, or not properly sealed, raised, spaced or movable to allow accessibility for cleaning on all sides, above and underneath the unit.",Not Critical,6,A,5/4/23,12/4/23,40.790522,-73.942518
TAQUERIA GUADALUPE,1743,LEXINGTON AVENUE,Manhattan,10029,1743 LEXINGTON avenue Manhattan 10029,"1743 lexington avenue manhattan, ny 10029",Mexican,2/15/23,Violations were cited in the following area(s).,04A,Food Protection Certificate (FPC) not held by manager or supervisor of food operations.,Critical,12,A,2/15/23,12/4/23,40.7937951,-73.945126
PINK TACO,7,TIMES SQUARE,Manhattan,10036,7 TIMES SQUARE Manhattan 10036,"7 times square manhattan, ny 10036",Mexican,8/23/23,Violations were cited in the following area(s).,06D,"Food contact surface not properly washed, rinsed and sanitized after each use and following any activity when contamination may have occurred.",Critical,13,A,8/23/23,12/4/23,40.7559078,-73.986681
QUESADILLAS DE MATY,2141,2 AVENUE,Manhattan,10029,2141 2 avenue Manhattan 10029,"2141 2nd avenue manhattan, ny 10029",Mexican,8/16/22,Violations were cited in the following area(s).,08A,"Establishment is not free of harborage or conditions conducive to rodents, insects or other pests.",Not Critical,12,A,8/16/22,12/4/23,40.7932795,-73.940504
EL MITOTE,208,COLUMBUS AVENUE,Manhattan,10023,208 COLUMBUS avenue Manhattan 10023,"208 columbus avenue manhattan, ny 10023",Mexican,4/18/22,Violations were cited in the following area(s).,08A,Facility not vermin proof. Harborage or conditions conducive to attracting vermin to the premises and/or allowing vermin to exist.,Not Critical,13,A,4/18/22,12/4/23,40.7757926,-73.979987
TACOMBI,139,EAST 12 STREET,Manhattan,10003,139 east 12 STREET Manhattan 10003,"139 east 12th street manhattan, ny 10003",Mexican,9/19/23,Violations were cited in the following area(s).,06C,"Food, supplies, or equipment not protected from potential source of contamination during storage, preparation, transportation, display, service or from customer‚Äôs refillable, reusable container. Condiments not in single-service containers or dispensed directly by the vendor.",Critical,12,A,9/19/23,12/4/23,40.7322015,-73.98871
SERRANO SALSA,4979,BROADWAY,Manhattan,10034,4979 BROADWAY Manhattan 10034,"4979 broadway manhattan, ny 10034",Mexican,8/2/23,Violations were cited in the following area(s).,10F,"Non-food contact surface or equipment made of unacceptable material, not kept clean, or not properly sealed, raised, spaced or movable to allow accessibility for cleaning on all sides, above and underneath the unit.",Not Critical,3,A,8/2/23,12/4/23,40.8682446,-73.919339
LUCHADORES,87,SOUTH STREET,Manhattan,10038,87 SOUTH STREET Manhattan 10038,"87 south street manhattan, ny 10038",Mexican,1/19/22,Violations were cited in the following area(s).,02G,Cold food item held above 41¬∫ F (smoked fish and reduced oxygen packaged foods above 38 ¬∫F) except during necessary preparation.,Critical,9,A,1/19/22,12/4/23,40.705737,-74.003964
EL CENTRO,824,9 AVENUE,Manhattan,10019,824 9 avenue Manhattan 10019,"824 9th avenue manhattan, ny 10019",Mexican,3/1/22,Violations were cited in the following area(s).,06D,"Food contact surface not properly washed, rinsed and sanitized after each use and following any activity when contamination may have occurred.",Critical,7,A,3/1/22,12/4/23,40.7661184,-73.987011
OXIDO,1450,BROADWAY,Manhattan,10018,1450 BROADWAY Manhattan 10018,"1450 broadway manhattan, ny 10018",Mexican,3/3/23,Violations were cited in the following area(s).,10F,"Non-food contact surface or equipment made of unacceptable material, not kept clean, or not properly sealed, raised, spaced or movable to allow accessibility for cleaning on all sides, above and underneath the unit.",Not Critical,10,A,3/3/23,12/4/23,40.7549197,-73.98666
QUESADILLAS DONA MATY,228,EAST 116 STREET,Manhattan,10029,228 east 116 STREET Manhattan 10029,"228 east 116th street manhattan, ny 10029",Mexican,10/23/23,Violations were cited in the following area(s).,08A,"Establishment is not free of harborage or conditions conducive to rodents, insects or other pests.",Not Critical,25,B,10/23/23,12/4/23,40.7976018,-73.939239
EL TORO MEXICAN GRILL,69,NEW STREET,Manhattan,10004,69 NEW STREET Manhattan 10004,"69 new street manhattan, ny 10004",Mexican,4/13/23,Violations were cited in the following area(s).,10E,"Accurate thermometer not provided or properly located in refrigerated, cold storage or hot holding equipment",Not Critical,10,A,4/13/23,12/4/23,40.7055003,-74.012396
EL CABRON TAQUERIA,23,ESSEX STREET,Manhattan,10002,23 ESSEX STREET Manhattan 10002,"23 essex street manhattan, ny 10002",Mexican,4/25/23,Violations were cited in the following area(s).,08A,"Establishment is not free of harborage or conditions conducive to rodents, insects or other pests.",Not Critical,11,A,4/25/23,12/4/23,40.7153652,-73.98986
TACO BELL,1501,BROADWAY,Manhattan,10036,1501 BROADWAY Manhattan 10036,"1501 broadway manhattan, ny 10036",Mexican,10/28/22,Violations were cited in the following area(s).,08A,"Establishment is not free of harborage or conditions conducive to rodents, insects or other pests.",Not Critical,11,A,10/28/22,12/4/23,40.7570962,-73.986193
THE JAGUAR RESTAURANT,1735,LEXINGTON AVENUE,Manhattan,10029,1735 LEXINGTON avenue Manhattan 10029,"1735 lexington avenue manhattan, ny 10029",Mexican,2/9/23,Violations were cited in the following area(s).,10F,"Non-food contact surface or equipment made of unacceptable material, not kept clean, or not properly sealed, raised, spaced or movable to allow accessibility for cleaning on all sides, above and underneath the unit.",Not Critical,13,A,2/9/23,12/4/23,40.7935701,-73.945292
CALEXICO,1491,2 AVENUE,Manhattan,10075,1491 2 avenue Manhattan 10075,"1491 2nd avenue manhattan, ny 10075",Mexican,7/13/22,Violations were cited in the following area(s).,10F,"Non-food contact surface or equipment made of unacceptable material, not kept clean, or not properly sealed, raised, spaced or movable to allow accessibility for cleaning on all sides, above and underneath the unit.",Not Critical,13,A,7/13/22,12/4/23,40.7724317,-73.955722
DOS TOROS,636,LEXINGTON AVENUE,Manhattan,10022,636 LEXINGTON avenue Manhattan 10022,"636 lexington avenue manhattan, ny 10022",Mexican,8/12/22,Violations were cited in the following area(s).,10G,"Dishwashing and ware washing: Cleaning and sanitizing of tableware, including dishes, utensils, and equipment deficient.",Not Critical,13,A,8/12/22,12/4/23,40.7590915,-73.970477
MI RANCHITO MEXICAN RESTAURANT,1468,ST NICHOLAS AVENUE,Manhattan,10033,1468 ST NICHOLAS avenue Manhattan 10033,"1468 st nicholas avenue manhattan, ny 10033",Mexican,1/4/23,Violations were cited in the following area(s).,02G,Cold TCS food item held above 41 ¬∞F; smoked or processed fish held above 38 ¬∞F; intact raw eggs held above 45 ¬∞F; or reduced oxygen packaged (ROP) TCS foods held above required temperatures except during active necessary preparation.,Critical,27,B,1/4/23,12/4/23,40.8508132,-73.932623
SABOR A MEXICO II,233,EAST 77 STREET,Manhattan,10075,233 east 77 STREET Manhattan 10075,"233 east 77th street manhattan, ny 10075",Mexican,9/19/22,Violations were cited in the following area(s).,10F,"Non-food contact surface or equipment made of unacceptable material, not kept clean, or not properly sealed, raised, spaced or movable to allow accessibility for cleaning on all sides, above and underneath the unit.",Not Critical,2,A,9/19/22,12/4/23,40.772608,-73.957401
SABOR A MEXICO,1744,FIRST AVENUE,Manhattan,10128,1744 FIRST avenue Manhattan 10128,"1744 1st avenue manhattan, ny 10128",Mexican,4/25/23,Violations were cited in the following area(s).,10G,"Dishwashing and ware washing: Cleaning and sanitizing of tableware, including dishes, utensils, and equipment deficient.",Not Critical,10,A,4/25/23,12/4/23,40.7796441,-73.947337
LA AVENIDA,2247,1 AVENUE,Manhattan,10029,2247 1 avenue Manhattan 10029,"2247 1st avenue manhattan, ny 10029",Mexican,5/4/22,Violations were cited in the following area(s).,10B,Plumbing not properly installed or maintained; anti-siphonage or backflow prevention device not provided where required; equipment or floor not properly drained; sewage disposal system in disrepair or not functioning properly.,Not Critical,12,A,5/4/22,12/4/23,40.7956072,-73.935705
EL PASO TAQUERIA,64,EAST 97 STREET,Manhattan,10029,64 east 97 STREET Manhattan 10029,"64 east 97th street manhattan, ny 10029",Mexican,11/21/22,Violations were cited in the following area(s).,06D,"Food contact surface not properly washed, rinsed and sanitized after each use and following any activity when contamination may have occurred.",Critical,22,B,11/21/22,12/4/23,40.7874718,-73.952682
EMPELLON,510,MADISON AVENUE,Manhattan,10022,510 MADISON avenue Manhattan 10022,"510 madison avenue manhattan, ny 10022",Mexican,8/3/22,Violations were cited in the following area(s).,04H,"Raw, cooked or prepared food is adulterated, contaminated, cross-contaminated, or not discarded in accordance with HACCP plan.",Critical,12,A,8/3/22,12/4/23,40.7596441,-73.974299
ANEJO TRIBECA,31,WALKER STREET,Manhattan,10013,31 WALKER STREET Manhattan 10013,"31 walker street manhattan, ny 10013",Mexican,7/7/22,Violations were cited in the following area(s).,02H,"After cooking or removal from hot holding, TCS food not cooled by an approved method whereby the internal temperature is reduced from 140 ¬∞F to 70 ¬∞F or less within 2 hours, and from 70 ¬∞F to 41 ¬∞F or less within 4 additional hours.",Critical,13,A,7/7/22,12/4/23,40.7192989,-74.00404
PICANTE MEXICAN BAR AND GRILL RESTAURANT,3424,BROADWAY,Manhattan,10031,3424 BROADWAY Manhattan 10031,"3424 broadway manhattan, ny 10031",Mexican,10/19/23,Violations were cited in the following area(s).,10F,"Non-food contact surface or equipment made of unacceptable material, not kept clean, or not properly sealed, raised, spaced or movable to allow accessibility for cleaning on all sides, above and underneath the unit.",Not Critical,3,A,10/19/23,12/4/23,40.8228243,-73.953069
LA PLACITA TAQUERIA & CAFFE,3887,BROADWAY,Manhattan,10032,3887 BROADWAY Manhattan 10032,"3887 broadway manhattan, ny 10032",Mexican,8/2/22,Violations were cited in the following area(s).,04J,"Properly scaled and calibrated thermometer or thermocouple not provided or not readily accessible in food preparation and hot/cold holding areas to measure temperatures of TCS foods during cooking, cooling, reheating, and holding.",Critical,12,A,8/2/22,12/4/23,40.8374434,-73.942412
DELICIAS MEXICANAS,2109,3 AVENUE,Manhattan,10029,2109 3 avenue Manhattan 10029,"2109 3rd avenue manhattan, ny 10029",Mexican,2/17/23,Violations were cited in the following area(s).,02B,Hot TCS food item not held at or above 140 ¬∞F.,Critical,13,A,2/17/23,12/4/23,40.7975283,-73.940308
BARRIO CHINO,253,BROOME STREET,Manhattan,10002,253 BROOME STREET Manhattan 10002,"253 broome street manhattan, ny 10002",Mexican,9/8/22,Violations were cited in the following area(s).,04N,"Filth flies or food/refuse/sewage associated with (FRSA) flies or other nuisance pests in establishment‚Äôs food and/or non-food areas. FRSA flies include house flies, blow flies, bottle flies, flesh flies, drain flies, Phorid flies and fruit flies.",Critical,0,A,9/8/22,12/4/23,40.7180304,-73.989971
Buena Onda,1446,1 AVENUE,Manhattan,10021,1446 1 avenue Manhattan 10021,"1446 1st avenue manhattan, ny 10021",Mexican,10/26/23,Violations were cited in the following area(s).,10F,"Non-food contact surface or equipment made of unacceptable material, not kept clean, or not properly sealed, raised, spaced or movable to allow accessibility for cleaning on all sides, above and underneath the unit.",Not Critical,13,A,10/26/23,12/4/23,40.7698923,-73.954457
MEXICAN RESTAURANT,1779,LEXINGTON AVENUE,Manhattan,10029,1779 LEXINGTON avenue Manhattan 10029,"1779 lexington avenue manhattan, ny 10029",Mexican,5/8/23,Violations were cited in the following area(s).,10F,"Non-food contact surface or equipment made of unacceptable material, not kept clean, or not properly sealed, raised, spaced or movable to allow accessibility for cleaning on all sides, above and underneath the unit.",Not Critical,13,A,5/8/23,12/4/23,40.795016,-73.944236
CANTINA TAQUERIA & TEQUILA BAR,329,LENOX AVENUE,Manhattan,10027,329 LENOX avenue Manhattan 10027,"329 lenox avenue manhattan, ny 10027",Mexican,1/12/23,Violations were cited in the following area(s).,06C,"Food, supplies, and equipment not protected from potential source of contamination during storage, preparation, transportation, display or service.",Critical,21,B,1/12/23,12/4/23,40.8087565,-73.944778
345 Cantina,345,EAST 6 STREET,Manhattan,10003,345 east 6 STREET Manhattan 10003,"345 east 6th street manhattan, ny 10003",Mexican,1/21/23,Violations were cited in the following area(s).,04H,"Raw, cooked or prepared food is adulterated, contaminated, cross-contaminated, or not discarded in accordance with HACCP plan.",Critical,22,B,1/21/23,12/4/23,40.7269369,-73.98743
LOLITAS KITCHEN & BURGER HOUSE,1364,LEXINGTON AVENUE,Manhattan,10128,1364 LEXINGTON avenue Manhattan 10128,"1364 lexington avenue manhattan, ny 10128",Mexican,8/31/22,Violations were cited in the following area(s).,02B,Hot TCS food item not held at or above 140 ¬∞F.,Critical,0,A,8/31/22,12/4/23,40.7822022,-73.953621
OSO,1616,AMSTERDAM AVENUE,Manhattan,10031,1616 AMSTERDAM avenue Manhattan 10031,"1616 amsterdam avenue manhattan, ny 10031",Mexican,11/20/22,Violations were cited in the following area(s).,06E,"Sanitized equipment or utensil, including in-use food dispensing utensil, improperly used or stored.",Critical,5,A,11/20/22,12/4/23,40.8218294,-73.950107
EVA'S x CINCO DE MAYO,11,WEST 8 STREET,Manhattan,10011,11 WEST 8 STREET Manhattan 10011,"11 west 8th street manhattan, ny 10011",Mexican,5/31/23,Violations were cited in the following area(s).,10F,"Non-food contact surface or equipment made of unacceptable material, not kept clean, or not properly sealed, raised, spaced or movable to allow accessibility for cleaning on all sides, above and underneath the unit.",Not Critical,7,A,5/31/23,12/4/23,40.7325204,-73.996973
EL PARADOR CAFE,325,EAST 34 STREET,Manhattan,10016,325 east 34 STREET Manhattan 10016,"325 east 34th street manhattan, ny 10016",Mexican,3/30/23,Violations were cited in the following area(s).,02B,Hot TCS food item not held at or above 140 ¬∞F.,Critical,16,B,3/30/23,12/4/23,40.7443476,-73.974846
BLUE CORN RESTAURANT,1969,AMSTERDAM AVENUE,Manhattan,10032,1969 AMSTERDAM avenue Manhattan 10032,"1969 amsterdam avenue manhattan, ny 10032",Mexican,3/10/22,Violations were cited in the following area(s).,10B,Plumbing not properly installed or maintained; anti-siphonage or backflow prevention device not provided where required; equipment or floor not properly drained; sewage disposal system in disrepair or not functioning properly.,Not Critical,7,A,3/10/22,12/4/23,40.8331064,-73.941837
DELICIAS MEXICANAS,2109,3 AVENUE,Manhattan,10029,2109 3 avenue Manhattan 10029,"2109 3rd avenue manhattan, ny 10029",Mexican,2/17/23,Violations were cited in the following area(s).,10F,"Non-food contact surface or equipment made of unacceptable material, not kept clean, or not properly sealed, raised, spaced or movable to allow accessibility for cleaning on all sides, above and underneath the unit.",Not Critical,13,A,2/17/23,12/4/23,40.7975283,-73.940308
JO'S TACO,226,EAST 14 STREET,Manhattan,10003,226 east 14 STREET Manhattan 10003,"226 east 14th street manhattan, ny 10003",Mexican,8/2/23,Violations were cited in the following area(s).,04J,"Properly scaled and calibrated thermometer or thermocouple not provided or not readily accessible in food preparation and hot/cold holding areas to measure temperatures of TCS foods during cooking, cooling, reheating, and holding.",Critical,7,A,8/2/23,12/4/23,40.7329616,-73.986437
PLANET TACO,705,9 AVENUE,Manhattan,10019,705 9 avenue Manhattan 10019,"705 9th avenue manhattan, ny 10019",Mexican,8/22/22,Violations were cited in the following area(s).,04M,Live roaches in facility's food or non-food area.,Critical,9,A,8/22/22,12/4/23,40.7624242,-73.989734
LA ESQUINA,1402,2 AVENUE,Manhattan,10021,1402 2 avenue Manhattan 10021,"1402 2nd avenue manhattan, ny 10021",Mexican,12/1/22,Violations were cited in the following area(s).,04H,"Raw, cooked or prepared food is adulterated, contaminated, cross-contaminated, or not discarded in accordance with HACCP plan.",Critical,18,B,12/1/22,12/4/23,40.7693694,-73.95793
BARRIO CHINO,253,BROOME STREET,Manhattan,10002,253 BROOME STREET Manhattan 10002,"253 broome street manhattan, ny 10002",Mexican,3/8/23,Violations were cited in the following area(s).,02G,Cold TCS food item held above 41 ¬∞F; smoked or processed fish held above 38 ¬∞F; intact raw eggs held above 45 ¬∞F; or reduced oxygen packaged (ROP) TCS foods held above required temperatures except during active necessary preparation.,Critical,27,B,3/8/23,12/4/23,40.7180304,-73.989971
SAN LOCO,111,STANTON STREET,Manhattan,10002,111 STANTON STREET Manhattan 10002,"111 stanton street manhattan, ny 10002",Mexican,7/27/22,Violations were cited in the following area(s).,06D,"Food contact surface not properly washed, rinsed and sanitized after each use and following any activity when contamination may have occurred.",Critical,0,A,7/27/22,12/4/23,40.7210933,-73.987366
SABOR A MEXICO,1744,FIRST AVENUE,Manhattan,10128,1744 FIRST avenue Manhattan 10128,"1744 1st avenue manhattan, ny 10128",Mexican,4/25/23,Violations were cited in the following area(s).,08C,"Pesticide not properly labeled or used by unlicensed individual. Pesticide, other toxic chemical improperly used/stored. Unprotected, unlocked bait station used.",Not Critical,10,A,4/25/23,12/4/23,40.7796441,-73.947337
ROSA MEXICANO,61,COLUMBUS AVENUE,Manhattan,10023,61 COLUMBUS avenue Manhattan 10023,"61 columbus avenue manhattan, ny 10023",Mexican,9/19/23,Violations were cited in the following area(s).,06D,"Food contact surface not properly washed, rinsed and sanitized after each use and following any activity when contamination may have occurred.",Critical,18,B,9/19/23,12/4/23,40.7711957,-73.983328
LA PALAPA,77,ST MARKS PLACE,Manhattan,10003,77 ST MARKS PLACE Manhattan 10003,"77 saint marks place manhattan, ny 10003",Mexican,4/19/22,Violations were cited in the following area(s).,10F,"Non-food contact surface improperly constructed. Unacceptable material used. Non-food contact surface or equipment improperly maintained and/or not properly sealed, raised, spaced or movable to allow accessibility for cleaning on all sides, above and underneath the unit.",Not Critical,12,A,4/19/22,12/4/23,40.727837,-73.985864
345 Cantina,345,EAST 6 STREET,Manhattan,10003,345 east 6 STREET Manhattan 10003,"345 east 6th street manhattan, ny 10003",Mexican,1/21/23,Violations were cited in the following area(s).,04M,Live roaches in facility's food or non-food area.,Critical,22,B,1/21/23,12/4/23,40.7269369,-73.98743
LUPITA MEXICAN RESTAURANT,3829,BROADWAY,Manhattan,10032,3829 BROADWAY Manhattan 10032,"3829 broadway manhattan, ny 10032",Mexican,2/6/23,Violations were cited in the following area(s).,02H,"After cooking or removal from hot holding, TCS food not cooled by an approved method whereby the internal temperature is reduced from 140 ¬∞F to 70 ¬∞F or less within 2 hours, and from 70 ¬∞F to 41 ¬∞F or less within 4 additional hours.",Critical,14,B,2/6/23,12/4/23,40.8355941,-73.943765
MAD DOG & BEANS,83,PEARL STREET,Manhattan,10004,83 PEARL STREET Manhattan 10004,"83 pearl street manhattan, ny 10004",Mexican,1/17/23,Violations were cited in the following area(s).,04L,Evidence of mice or live mice in establishment's food or non-food areas.,Critical,9,A,1/17/23,12/4/23,40.7040485,-74.010153
ATLA,372,LAFAYETTE STREET,Manhattan,10012,372 LAFAYETTE STREET Manhattan 10012,"372 lafayette street manhattan, ny 10012",Mexican,2/1/22,Violations were cited in the following area(s).,06C,"Food not protected from potential source of contamination during storage, preparation, transportation, display or service.",Critical,9,A,2/1/22,12/4/23,40.7271323,-73.993765
FONDA,139,DUANE STREET,Manhattan,10013,139 DUANE STREET Manhattan 10013,"139 duane street manhattan, ny 10013",Mexican,1/26/23,Violations were cited in the following area(s).,04H,"Raw, cooked or prepared food is adulterated, contaminated, cross-contaminated, or not discarded in accordance with HACCP plan.",Critical,13,A,1/26/23,12/4/23,40.7163124,-74.00777
PAQ'S TAKE OUT,143,1 AVENUE,Manhattan,10003,143 1 avenue Manhattan 10003,"143 1st avenue manhattan, ny 10003",Mexican,4/13/22,Violations were cited in the following area(s).,10F,"Non-food contact surface improperly constructed. Unacceptable material used. Non-food contact surface or equipment improperly maintained and/or not properly sealed, raised, spaced or movable to allow accessibility for cleaning on all sides, above and underneath the unit.",Not Critical,23,B,4/13/22,12/4/23,40.7280208,-73.984984
PAQ'S TAKE OUT,143,1 AVENUE,Manhattan,10003,143 1 avenue Manhattan 10003,"143 1st avenue manhattan, ny 10003",Mexican,4/13/22,Violations were cited in the following area(s).,02B,Hot food item not held at or above 140¬∫ F.,Critical,23,B,4/13/22,12/4/23,40.7280208,-73.984984
AMERICAN RESTAURANT,1467,AMSTERDAM AVENUE,Manhattan,10027,1467 AMSTERDAM avenue Manhattan 10027,"1467 amsterdam avenue manhattan, ny 10027",Mexican,8/4/23,Violations were cited in the following area(s).,08A,"Establishment is not free of harborage or conditions conducive to rodents, insects or other pests.",Not Critical,11,A,8/4/23,12/4/23,40.8171785,-73.953474
CANTINA TAQUERIA & TEQUILA BAR,329,LENOX AVENUE,Manhattan,10027,329 LENOX avenue Manhattan 10027,"329 lenox avenue manhattan, ny 10027",Mexican,1/12/23,Violations were cited in the following area(s).,04L,Evidence of mice or live mice in establishment's food or non-food areas.,Critical,21,B,1/12/23,12/4/23,40.8087565,-73.944778
SINIGUAL,640,3 AVENUE,Manhattan,10017,640 3 avenue Manhattan 10017,"640 3rd avenue manhattan, ny 10017",Mexican,1/18/23,Violations were cited in the following area(s).,09C,"Design, construction, materials used or maintenance of food contact surface improper. Surface not easily cleanable, sanitized and maintained.",Not Critical,13,A,1/18/23,12/4/23,40.7501967,-73.974869
MAMASITA BAR,818,10 AVENUE,Manhattan,10019,818 10 avenue Manhattan 10019,"818 10th avenue manhattan, ny 10019",Mexican,8/4/22,Violations were cited in the following area(s).,08A,"Establishment is not free of harborage or conditions conducive to rodents, insects or other pests.",Not Critical,13,A,8/4/22,12/4/23,40.7674169,-73.98978
TULCINGO DEL VALLE,665,10 AVENUE,Manhattan,10036,665 10 avenue Manhattan 10036,"665 10th avenue manhattan, ny 10036",Mexican,2/8/22,Violations were cited in the following area(s).,10B,Plumbing not properly installed or maintained; anti-siphonage or backflow prevention device not provided where required; equipment or floor not properly drained; sewage disposal system in disrepair or not functioning properly.,Not Critical,13,A,2/8/22,12/4/23,40.7626742,-73.993268
FACTORY TAMAL,34,LUDLOW STREET,Manhattan,10002,34 LUDLOW STREET Manhattan 10002,"34 ludlow street manhattan, ny 10002",Mexican,5/4/22,Violations were cited in the following area(s).,06D,"Food contact surface not properly washed, rinsed and sanitized after each use and following any activity when contamination may have occurred.",Critical,7,A,5/4/22,12/4/23,40.7159389,-73.990469
LA COVACHA,368,COLUMBUS AVENUE,Manhattan,10024,368 COLUMBUS avenue Manhattan 10024,"368 columbus avenue manhattan, ny 10024",Mexican,1/12/22,Violations were cited in the following area(s).,06C,"Food not protected from potential source of contamination during storage, preparation, transportation, display or service.",Critical,9,A,1/12/22,12/4/23,40.7809356,-73.976233
DOS TOROS,101,MAIDEN LANE,Manhattan,10038,101 MAIDEN LANE Manhattan 10038,"101 maiden lane manhattan, ny 10038",Mexican,3/1/23,Violations were cited in the following area(s).,10F,"Non-food contact surface or equipment made of unacceptable material, not kept clean, or not properly sealed, raised, spaced or movable to allow accessibility for cleaning on all sides, above and underneath the unit.",Not Critical,10,A,3/1/23,12/4/23,40.7069555,-74.007091
AZULE CANTINA,31,WEST 52 STREET,Manhattan,10019,31 WEST 52 STREET Manhattan 10019,"31 west 52nd street manhattan, ny 10019",Mexican,7/26/22,Violations were cited in the following area(s).,10B,Anti-siphonage or back-flow prevention device not provided where required; equipment or floor not properly drained; sewage disposal system in disrepair or not functioning properly. Condensation or liquid waste improperly disposed of.,Not Critical,13,A,7/26/22,12/4/23,40.7604847,-73.977937
ATLA,372,LAFAYETTE STREET,Manhattan,10012,372 LAFAYETTE STREET Manhattan 10012,"372 lafayette street manhattan, ny 10012",Mexican,4/6/23,Violations were cited in the following area(s).,10B,Anti-siphonage or back-flow prevention device not provided where required; equipment or floor not properly drained; sewage disposal system in disrepair or not functioning properly. Condensation or liquid waste improperly disposed of.,Not Critical,10,A,4/6/23,12/4/23,40.7271323,-73.993765
